{
  "version": 0.6,
  "generator": "Overpass API",
  "osm3s": {
    "timestamp_osm_base": "2016-07-18T11:57:02Z",
    "timestamp_areas_base": "2016-07-16T22:28:02Z",
    "copyright": "The data included in this document is from www.openstreetmap.org. The data is made available under ODbL."
  },
  "elements": [

{
  "type": "node",
  "id": 10862294,
  "lat": 48.3551727,
  "lon": 10.8930950,
  "tags": {
    "name": "Augsburg Morellstraße",
    "operator": "Deutsche Bahn",
    "public_transport": "station",
    "railway": "station",
    "railway:ref": "MAMS",
    "railway:station_category": "6",
    "wheelchair": "no",
    "wikipedia": "de:Bahnhof Augsburg Morellstraße"
  }
},
{
  "type": "node",
  "id": 11298382,
  "lat": 48.1502310,
  "lon": 10.9810183,
  "tags": {
    "name": "Walleshausen",
    "railway": "station",
    "uic_ref": "8006184"
  }
},
{
  "type": "node",
  "id": 11298473,
  "lat": 48.2132290,
  "lon": 10.9778623,
  "tags": {
    "name": "Schmiechen",
    "public_transport": "stop_position",
    "railway": "halt",
    "train": "yes"
  }
},
{
  "type": "node",
  "id": 11298518,
  "lat": 47.8452157,
  "lon": 11.1430515,
  "tags": {
    "addr:city": "Weilheim",
    "addr:housenumber": "1",
    "addr:postcode": "82362",
    "addr:street": "Bahnhofplatz",
    "name": "Weilheim (Oberbayern)",
    "operator": "DB Station&Service AG",
    "platforms": "5",
    "railway": "station",
    "railway:station_category": "4",
    "ref": "1",
    "uic_ref": "8000220",
    "website": "http://www.stationsdatenbank.bayern-takt.de/StationsdatenbankBEG/Steckbrief.html?lang=de&efz=8000220",
    "wheelchair": "no",
    "wikipedia": "de:Bahnhof Weilheim (Oberbay)"
  }
},
{
  "type": "node",
  "id": 11298551,
  "lat": 47.9116401,
  "lon": 11.1144709,
  "tags": {
    "name": "Raisting",
    "note": "Raisting ist eine HSt, KEIN Bahnhof (daher halt statt station)",
    "railway": "halt",
    "uic_ref": "8004925"
  }
},
{
  "type": "node",
  "id": 11305402,
  "lat": 48.1467416,
  "lon": 10.5939468,
  "tags": {
    "name": "Markt Wald",
    "railway": "station"
  }
},
{
  "type": "node",
  "id": 11305526,
  "lat": 48.2640954,
  "lon": 10.6071130,
  "tags": {
    "name": "Langenneufnach",
    "railway": "station"
  }
},
{
  "type": "node",
  "id": 11305593,
  "lat": 48.1762316,
  "lon": 10.5980597,
  "tags": {
    "name": "Mittelneufnach",
    "railway": "station"
  }
},
{
  "type": "node",
  "id": 11305608,
  "lat": 48.2271244,
  "lon": 10.5912509,
  "tags": {
    "name": "Walkertshofen",
    "railway": "station"
  }
},
{
  "type": "node",
  "id": 11305646,
  "lat": 48.1984788,
  "lon": 10.5981748,
  "tags": {
    "name": "Reichertshofen",
    "railway": "station"
  }
},
{
  "type": "node",
  "id": 11420136,
  "lat": 48.3990227,
  "lon": 10.4457261,
  "tags": {
    "name": "Jettingen",
    "note": "Aufgrund fehlender Weichen im Stationsbereich offenbar Haltepunkt (railway=halt) statt Bahnhof (railway=station)",
    "operator": "Deutsche Bahn",
    "railway": "halt",
    "uic_name": "MJET",
    "uic_ref": "8003123"
  }
},
{
  "type": "node",
  "id": 11420145,
  "lat": 48.4567189,
  "lon": 10.4073931,
  "tags": {
    "name": "Mindelaltheim",
    "note": "Aufgrund fehlender Weichen im Stationsbereich offenbar Haltepunkt (railway=halt) statt Bahnhof (railway=station)",
    "operator": "Deutsche Bahn",
    "railway": "halt",
    "uic_name": "MMAH",
    "uic_ref": "8004030"
  }
},
{
  "type": "node",
  "id": 11420169,
  "lat": 48.4502325,
  "lon": 10.2155226,
  "tags": {
    "name": "Leipheim",
    "note": "Zurückstufung vom Bahnhof zum Haltepunkt, da keine Weiche vorhanden ist.",
    "railway": "halt",
    "uic_name": "MLEH",
    "uic_ref": "8003627",
    "wheelchair": "no"
  }
},
{
  "type": "node",
  "id": 11420177,
  "lat": 48.4298795,
  "lon": 10.1173108,
  "tags": {
    "name": "Nersingen",
    "operator": "Deutsche Bahn",
    "railway": "station",
    "uic_name": "MNSG",
    "uic_ref": "8004239",
    "wheelchair": "limited"
  }
},
{
  "type": "node",
  "id": 11420196,
  "lat": 48.3845220,
  "lon": 10.5024722,
  "tags": {
    "name": "Freihalden",
    "note": "Die Weichen nordwestlich des Haltepunkts sind eine Überleitstelle und gehören nicht zu dieser Station. Daher ist das ein Haltepunkt.",
    "operator": "Deutsche Bahn",
    "railway": "halt",
    "shelter": "yes",
    "uic_name": "MFHD",
    "uic_ref": "8002074"
  }
},
{
  "type": "node",
  "id": 11420198,
  "lat": 48.4251755,
  "lon": 10.4268306,
  "tags": {
    "is_in": "Burgau,Günzburg,Schwaben,Bayern,Bundesrepublik Deutschland,Europe",
    "name": "Burgau (Schwaben)",
    "operator": "Deutsche Bahn",
    "railway": "station",
    "uic_name": "MBGU",
    "uic_ref": "8001276",
    "wheelchair": "no"
  }
},
{
  "type": "node",
  "id": 13354935,
  "lat": 48.6943119,
  "lon": 9.4139091,
  "tags": {
    "name": "Wernau",
    "network": "VVS",
    "operator": "DB Station&Service AG",
    "public_transport": "station",
    "railway": "halt",
    "railway:ref": "TWER",
    "railway:station_category": "4",
    "train": "yes",
    "uic_ref": "8006346",
    "wheelchair": "yes"
  }
},
{
  "type": "node",
  "id": 13354966,
  "lat": 48.7385898,
  "lon": 9.3003518,
  "tags": {
    "name": "Esslingen (Neckar)",
    "operator": "DB Station & Service AG",
    "public_transport": "station",
    "railway": "station",
    "railway:ref": "TE",
    "railway:station_category": "3",
    "uic_ref": "8001920",
    "wheelchair": "yes",
    "wheelchair:description": "Hilfe wird gebraucht, um in die Zügen einzusteigen",
    "wikipedia": "de:Bahnhof Esslingen (Neckar)"
  }
},
{
  "type": "node",
  "id": 13620866,
  "lat": 47.9855912,
  "lon": 10.1870611,
  "tags": {
    "name": "Memmingen",
    "public_transport": "stop_position",
    "railway": "station",
    "railway:ref": "MM",
    "uic_ref": "8000249",
    "wheelchair": "yes",
    "wikipedia": "de:Bahnhof Memmingen"
  }
},
{
  "type": "node",
  "id": 13622060,
  "lat": 47.8128279,
  "lon": 10.2905408,
  "tags": {
    "name": "Dietmannsried",
    "railway": "station",
    "wheelchair": "limited"
  }
},
{
  "type": "node",
  "id": 13622065,
  "lat": 47.7118470,
  "lon": 10.3174922,
  "tags": {
    "alt_name": "Kempten (Allgäu) Hauptbahnhof",
    "local_ref": "2",
    "name": "Kempten (Allgäu) Hbf",
    "operator": "DB Netz",
    "public_transport": "stop_position",
    "railway": "station",
    "railway:ref": "MKP",
    "railway:station_category": "3",
    "train": "yes",
    "uic_ref": "8000197",
    "wheelchair": "yes",
    "wikipedia": "de:Kempten (Allgäu) Hauptbahnhof"
  }
},
{
  "type": "node",
  "id": 13624179,
  "lat": 47.8195931,
  "lon": 10.4388911,
  "tags": {
    "name": "Günzach",
    "railway": "station",
    "wheelchair": "no"
  }
},
{
  "type": "node",
  "id": 13668291,
  "lat": 47.8297739,
  "lon": 10.6404992,
  "tags": {
    "name": "Biessenhofen",
    "railway": "station",
    "railway:ref": "MBIH"
  }
},
{
  "type": "node",
  "id": 13668292,
  "lat": 48.0332946,
  "lon": 10.7160299,
  "tags": {
    "local_ref": "4",
    "name": "Buchloe",
    "operator": "Deutsche Bahn",
    "public_transport": "stop_position",
    "railway": "station",
    "railway:ref": "MBU",
    "railway:station_category": "3",
    "train": "yes",
    "uic_ref": "8000057",
    "wheelchair": "yes",
    "wikipedia": "de:Bahnhof Buchloe"
  }
},
{
  "type": "node",
  "id": 13796529,
  "lat": 48.0812007,
  "lon": 10.8548739,
  "tags": {
    "name": "Kaufering",
    "railway": "station",
    "uic_ref": "8000195",
    "wheelchair": "no"
  }
},
{
  "type": "node",
  "id": 13796546,
  "lat": 48.0537959,
  "lon": 10.8694741,
  "tags": {
    "name": "Landsberg (Lech) Schule",
    "railway": "station",
    "wheelchair": "limited"
  }
},
{
  "type": "node",
  "id": 13796591,
  "lat": 48.5653921,
  "lon": 11.2594827,
  "tags": {
    "name": "Schrobenhausen",
    "operator": "DB Station&Service AG",
    "railway": "station",
    "railway:ref": "MSHN",
    "uic_ref": "8005432"
  }
},
{
  "type": "node",
  "id": 13796816,
  "lat": 48.1249321,
  "lon": 11.0011776,
  "tags": {
    "disused": "yes",
    "name": "Kaltenberg",
    "railway": "station"
  }
},
{
  "type": "node",
  "id": 13796818,
  "lat": 48.0526590,
  "lon": 11.0899291,
  "tags": {
    "name": "Schondorf",
    "railway": "station",
    "uic_ref": "8005417"
  }
},
{
  "type": "node",
  "id": 13796820,
  "lat": 47.9828753,
  "lon": 11.0971593,
  "tags": {
    "name": "Riederau",
    "note": "zZ unklar ob Bf oder HSt (station oder halt?)",
    "public_transport": "stop_position",
    "railway": "station",
    "uic_ref": "8005086"
  }
},
{
  "type": "node",
  "id": 13796821,
  "lat": 47.9502737,
  "lon": 11.1080663,
  "tags": {
    "name": "Dießen",
    "railway": "station",
    "uic_ref": "8001447"
  }
},
{
  "type": "node",
  "id": 13801897,
  "lat": 47.5752782,
  "lon": 9.6124649,
  "tags": {
    "name": "Nonnenhorn",
    "operator": "DB Station&Service AG",
    "public_transport": "station",
    "railway": "station",
    "railway:position": "16,0",
    "railway:ref": "MNHN"
  }
},
{
  "type": "node",
  "id": 13801898,
  "lat": 47.5718671,
  "lon": 9.6390486,
  "tags": {
    "name": "Wasserburg (Bodensee)",
    "operator": "DB Station&Service AG",
    "public_transport": "station",
    "railway": "halt",
    "railway:position": "18,1",
    "railway:ref": "MWSG",
    "wheelchair": "yes"
  }
},
{
  "type": "node",
  "id": 13801899,
  "lat": 47.5641090,
  "lon": 9.6653041,
  "tags": {
    "name": "Enzisweiler",
    "operator": "DB Station&Service AG",
    "public_transport": "station",
    "railway": "station",
    "railway:position": "20,3",
    "railway:ref": "MENW"
  }
},
{
  "type": "node",
  "id": 13801900,
  "lat": 47.5597090,
  "lon": 9.6845564,
  "tags": {
    "name": "Lindau-Aeschach",
    "note": "Das ist nur ein Haltepunkt. Lindau-Aeschach ist noch mal auch eine Abzweigstelle (ca. 300 m südlich), aber kein Bahnhof.",
    "operator": "DB",
    "railway": "halt",
    "railway:position": "22,3",
    "railway:ref": "MLIA",
    "railway:ref:ÖBB": "L Z9",
    "railway:station_category": "6",
    "wheelchair": "no"
  }
},
{
  "type": "node",
  "id": 13801901,
  "lat": 47.5442020,
  "lon": 9.6808298,
  "tags": {
    "name": "Lindau Hauptbahnhof",
    "official_name": "Lindau Hbf",
    "railway": "station",
    "railway:position": "152.9 / 0.0",
    "railway:position:exact": "152.939 / 0.000",
    "railway:ref": "MLI",
    "railway:ref:ÖBB": "L",
    "railway:station_category": "3",
    "uic_name": "Lindau Hbf",
    "uic_ref": "8000230",
    "wheelchair": "limited",
    "wheelchair:description": "WC nicht rollstuhlgerecht, überall Schwellen",
    "wikipedia": "de:Lindau Hauptbahnhof"
  }
},
{
  "type": "node",
  "id": 13802087,
  "lat": 48.8930129,
  "lon": 11.1797600,
  "tags": {
    "name": "Eichstätt Stadt",
    "operator": "DB Station&Service AG",
    "railway": "halt",
    "railway:ref": "MEST",
    "uic_ref": "8001709",
    "wheelchair": "no"
  }
},
{
  "type": "node",
  "id": 13802088,
  "lat": 48.8922665,
  "lon": 11.1693859,
  "tags": {
    "name": "Rebdorf-Hofmühle",
    "operator": "DB Station&Service AG",
    "railway": "halt",
    "railway:ref": "MRH",
    "uic_ref": "8004966"
  }
},
{
  "type": "node",
  "id": 13802089,
  "lat": 48.8753806,
  "lon": 11.1679336,
  "tags": {
    "name": "Wasserzell (bei Eichstätt)",
    "operator": "DB Station&Service AG",
    "railway": "halt",
    "railway:ref": "MWAS",
    "uic_ref": "8006224"
  }
},
{
  "type": "node",
  "id": 13803230,
  "lat": 48.6061403,
  "lon": 11.5732621,
  "tags": {
    "name": "Rohrbach (Ilm)",
    "operator": "Deutsche Bahn",
    "public_transport": "stop_position",
    "rail": "yes",
    "railway": "station",
    "railway:ref": "MRBI",
    "uic_ref": "8000256",
    "wheelchair": "limited"
  }
},
{
  "type": "node",
  "id": 13804661,
  "lat": 48.8407052,
  "lon": 11.2114742,
  "tags": {
    "fixme": "Ist das wirklich ein Bahnhof oder nur ein Haltepunkt? Sind Weichen vorhanden?",
    "name": "Adelschlag",
    "operator": "DB Station&Service AG",
    "public_transport": "station",
    "railway": "station",
    "railway:ref": "MAD",
    "railway:station_category": "6",
    "uic_ref": "8000419"
  }
},
{
  "type": "node",
  "id": 13805138,
  "lat": 48.9611165,
  "lon": 10.9081661,
  "tags": {
    "local_ref": "4",
    "name": "Treuchtlingen",
    "operator": "DB Station&Service AG",
    "public_transport": "stop_position",
    "railway": "station",
    "railway:ref": "MTL",
    "railway:station_category": "3",
    "train": "yes",
    "uic_ref": "8000122",
    "wheelchair": "yes",
    "wikipedia": "de:Bahnhof Treuchtlingen"
  }
},
{
  "type": "node",
  "id": 13805139,
  "lat": 48.9262672,
  "lon": 10.9640823,
  "tags": {
    "name": "Pappenheim",
    "operator": "DB Station&Service AG",
    "public_transport": "stop_position",
    "railway": "station",
    "railway:ref": "MPP",
    "train": "yes",
    "uic_ref": "8004753"
  }
},
{
  "type": "node",
  "id": 13805140,
  "lat": 48.8920808,
  "lon": 10.9936462,
  "tags": {
    "name": "Solnhofen",
    "public_transport": "stop_position",
    "railway": "station",
    "train": "yes",
    "uic_ref": "8005593"
  }
},
{
  "type": "node",
  "id": 13805141,
  "lat": 48.8713884,
  "lon": 11.0788997,
  "tags": {
    "name": "Dollnstein",
    "operator": "DB Station&Service AG",
    "railway": "station",
    "railway:ref": "MDO",
    "uic_ref": "8001495",
    "wheelchair": "limited"
  }
},
{
  "type": "node",
  "id": 13807707,
  "lat": 47.6293646,
  "lon": 10.2738227,
  "tags": {
    "name": "Martinszell (Allgäu)",
    "railway": "station",
    "railway:station_category": "6"
  }
},
{
  "type": "node",
  "id": 13876506,
  "lat": 47.8491306,
  "lon": 12.8347925,
  "tags": {
    "name": "Teisendorf",
    "operator": "DB",
    "railway": "station",
    "railway:ref": "MTO",
    "uic_name": "Teisendorf",
    "uic_ref": "8005833",
    "wheelchair": "no",
    "wheelchair:description": "Gleis 2 okay, Gleis 3 u. 4 wegen langer Treppe nicht erreichbar"
  }
},
{
  "type": "node",
  "id": 13876507,
  "lat": 47.8698151,
  "lon": 12.6389130,
  "tags": {
    "local_ref": "2",
    "name": "Traunstein",
    "operator": "DB",
    "public_transport": "stop_position",
    "railway": "station",
    "railway:ref": "MTS",
    "railway:station_category": "3",
    "toilets:wheelchair": "no",
    "train": "yes",
    "uic_ref": "8000116",
    "wheelchair": "limited",
    "wheelchair:description": "Aufzüge zu allen Gleisen vorhanden, aber Richtung Salzburg Bahnsteig noch nicht angehoben. Aufstieg aus dem Zug unmöglich.",
    "wikipedia": "de:Bahnhof Traunstein"
  }
},
{
  "type": "node",
  "id": 13876508,
  "lat": 47.8255248,
  "lon": 12.5949293,
  "tags": {
    "name": "Bergen (Oberbayern)",
    "operator": "DB Station&Service AG",
    "railway": "halt",
    "railway:ref": "MBE",
    "short_name": "Bergen (Oberbay)",
    "uic_name": "Bergen(Oberbay)",
    "uic_ref": "8000888",
    "wheelchair": "limited"
  }
},
{
  "type": "node",
  "id": 13876509,
  "lat": 47.8220816,
  "lon": 12.4872990,
  "tags": {
    "name": "Übersee",
    "operator": "DB",
    "public_transport": "station",
    "railway": "station",
    "railway:ref": "MUS",
    "railway:station_category": "5",
    "train": "yes",
    "uic_name": "Übersee",
    "uic_ref": "8005940",
    "wheelchair": "no"
  }
},
{
  "type": "node",
  "id": 13876510,
  "lat": 47.8162573,
  "lon": 12.3814054,
  "tags": {
    "name": "Bernau am Chiemsee",
    "operator": "DB",
    "railway": "halt",
    "railway:ref": "MBN",
    "railway:station_category": "5",
    "uic_name": "Bernau a Chiemsee",
    "uic_ref": "8000911"
  }
},
{
  "type": "node",
  "id": 13876512,
  "lat": 47.9049387,
  "lon": 12.3017035,
  "tags": {
    "name": "Bad Endorf (Oberbay)",
    "operator": "DB",
    "public_transport": "station",
    "railway": "station",
    "railway:ref": "MBEF",
    "railway:station_category": "4",
    "uic_name": "Bad Endorf",
    "uic_ref": "8001787",
    "wheelchair": "yes",
    "wikipedia": "de:Bahnhof Bad Endorf (Oberbay)"
  }
},
{
  "type": "node",
  "id": 13876514,
  "lat": 47.8888133,
  "lon": 12.0849115,
  "tags": {
    "name": "Großkarolinenfeld",
    "railway": "station",
    "website": "http://bahnhof-grosskaro.npage.de",
    "wheelchair": "no"
  }
},
{
  "type": "node",
  "id": 13876515,
  "lat": 47.9421742,
  "lon": 12.0415581,
  "tags": {
    "name": "Ostermünchen",
    "public_transport": "station",
    "railway": "station",
    "train": "yes"
  }
},
{
  "type": "node",
  "id": 13876516,
  "lat": 47.9895751,
  "lon": 11.9935104,
  "tags": {
    "bus": "yes",
    "name": "Aßling (Oberbayern)",
    "public_transport": "station",
    "railway": "station",
    "train": "yes",
    "wheelchair": "no"
  }
},
{
  "type": "node",
  "id": 13878759,
  "lat": 47.7767946,
  "lon": 11.1405150,
  "tags": {
    "name": "Huglfing",
    "public_transport": "stop_position",
    "railway": "station",
    "railway:station_category": "6",
    "uic_ref": "8003024"
  }
},
{
  "type": "node",
  "id": 13883766,
  "lat": 48.0458341,
  "lon": 10.6169348,
  "tags": {
    "name": "Türkheim (Bayern)",
    "operator": "Deutsche Bahn",
    "railway": "station",
    "railway:ref": "MTHB",
    "uic_ref": "8000144"
  }
},
{
  "type": "node",
  "id": 13886426,
  "lat": 47.6171973,
  "lon": 11.0305297,
  "tags": {
    "name": "Unterammergau",
    "public_transport": "stop_position",
    "railway": "halt",
    "railway:station_category": "7",
    "toilets:wheelchair": "no",
    "train": "yes",
    "uic_name": "Unterammergau",
    "uic_ref": "8005975",
    "wheelchair": "yes"
  }
},
{
  "type": "node",
  "id": 13886440,
  "lat": 47.6483120,
  "lon": 11.0174483,
  "tags": {
    "area": "yes",
    "name": "Altenau",
    "note": "bitte beim uic_name (fehlenden Abstand) nicht ändern",
    "public_transport": "stop_position",
    "railway": "station",
    "railway:station_category": "7",
    "train": "yes",
    "uic_name": "Altenau(Bay)",
    "uic_ref": "8000515"
  }
},
{
  "type": "node",
  "id": 13886481,
  "lat": 47.6661655,
  "lon": 11.0258827,
  "tags": {
    "name": "Saulgrub",
    "public_transport": "stop_position",
    "railway": "station",
    "railway:station_category": "7",
    "train": "yes",
    "uic_name": "Saulgrub",
    "uic_ref": "8005302"
  }
},
{
  "type": "node",
  "id": 13895570,
  "lat": 50.2152727,
  "lon": 11.9504078,
  "tags": {
    "name": "Martinlamitz",
    "note": "Aufgrund fehlender Weichen im Stationsbereich offenbar Haltepunkt (railway=halt) statt Bahnhof (railway=station)",
    "operator": "DB Station&Service AG",
    "public_transport": "halt",
    "railway": "halt",
    "railway:ref": "NMLZ",
    "uic_ref": "8003898",
    "wheelchair": "yes"
  }
},
{
  "type": "node",
  "id": 13895742,
  "lat": 50.1306281,
  "lon": 12.0130991,
  "tags": {
    "name": "Marktleuthen",
    "operator": "DB Station&Service AG",
    "public_transport": "station",
    "railway": "station",
    "railway:ref": "NMH",
    "uic_ref": "8003884",
    "wheelchair": "no"
  }
},
{
  "type": "node",
  "id": 13895972,
  "lat": 50.0751284,
  "lon": 11.9938721,
  "tags": {
    "name": "Röslau",
    "operator": "DB Station&Service AG",
    "public_transport": "station",
    "railway": "halt",
    "railway:ref": "NROE",
    "uic_ref": "8005133"
  }
},
{
  "type": "node",
  "id": 13895973,
  "lat": 50.0511342,
  "lon": 12.0338555,
  "tags": {
    "name": "Wunsiedel-Holenbrunn",
    "operator": "Deutsche Bahn",
    "railway": "station",
    "railway:ref": "NHOB",
    "uic_ref": "8000173"
  }
},
{
  "type": "node",
  "id": 13896024,
  "lat": 50.0042480,
  "lon": 12.0827711,
  "tags": {
    "name": "Marktredwitz",
    "platforms": "5",
    "public_transport": "station",
    "railway": "station",
    "railway:ref": "NMR",
    "uic_ref": "8000247",
    "wheelchair": "limited",
    "wikipedia": "de:Bahnhof Marktredwitz"
  }
},
{
  "type": "node",
  "id": 13924098,
  "lat": 49.6703569,
  "lon": 12.1539903,
  "tags": {
    "alt_name": "Weiden (i. d. Oberpfalz)",
    "name": "Weiden (Oberpf)",
    "note": "\"Weiden (Oberpf)\" ist die offizielle Stationsbezeichnung",
    "railway": "station",
    "railway:ref": "NWDO",
    "uic_ref": "8000204",
    "wheelchair": "no"
  }
},
{
  "type": "node",
  "id": 13924111,
  "lat": 49.8397756,
  "lon": 12.1185904,
  "tags": {
    "name": "Reuth (bei Erbendorf)",
    "operator": "DB Station&Service AG",
    "railway": "station",
    "railway:ref": "NRT",
    "uic_ref": "8005050"
  }
},
{
  "type": "node",
  "id": 13924112,
  "lat": 49.9107036,
  "lon": 12.1912194,
  "tags": {
    "name": "Wiesau (Oberpfalz)",
    "railway": "station",
    "wheelchair": "no"
  }
},
{
  "type": "node",
  "id": 13924141,
  "lat": 49.7944597,
  "lon": 12.1653335,
  "tags": {
    "name": "Windischeschenbach",
    "operator": "DB Station&Service AG",
    "railway": "station",
    "railway:ref": "NWB",
    "uic_ref": "8006472",
    "wheelchair": "limited",
    "wheelchair:description": "nur Gleis 1 ist barrierefrei erreichbar"
  }
},
{
  "type": "node",
  "id": 13925786,
  "lat": 47.4399924,
  "lon": 11.2657490,
  "tags": {
    "ele": "914",
    "name": "Mittenwald",
    "operator": "DB",
    "public_transport": "stop_position",
    "railway": "station",
    "railway:position": "118.5",
    "railway:position:exact": "118.540",
    "railway:ref": "MMW",
    "railway:ref:ÖBB": "Mw",
    "railway:station_category": "4",
    "train": "yes",
    "uic_ref": "8004043",
    "website": "http://www.bahnhof.de/#station/19816",
    "wheelchair": "limited"
  }
},
{
  "type": "node",
  "id": 13925787,
  "lat": 47.4830341,
  "lon": 11.2384212,
  "tags": {
    "ele": "933",
    "name": "Klais",
    "operator": "DB",
    "railway": "station",
    "railway:position": "112.3",
    "railway:position:exact": "112.267",
    "railway:ref": "MKLA",
    "railway:ref:ÖBB": "Kla",
    "railway:station_category": "6",
    "uic_ref": "8003302"
  }
},
{
  "type": "node",
  "id": 13927006,
  "lat": 47.4914979,
  "lon": 11.0970374,
  "tags": {
    "ele": "708",
    "name": "Garmisch-Partenkirchen",
    "operator": "DB",
    "railway": "station",
    "railway:position": "100.6 / 0.0",
    "railway:position:exact": "100.571 / 0.000",
    "railway:ref": "MGP",
    "railway:ref:ÖBB": "Gp",
    "railway:station_category": "3",
    "toilets:wheelchair": "no",
    "uic_ref": "8002187",
    "wheelchair": "limited",
    "wheelchair:description": "Präsenzzeit des mobilen Service von 06:00 Uhr bis 22:40 Uhr",
    "wikipedia": "de:Bahnhof Garmisch-Partenkirchen"
  }
},
{
  "type": "node",
  "id": 13929049,
  "lat": 47.6017837,
  "lon": 11.1880292,
  "tags": {
    "name": "Eschenlohe",
    "public_transport": "stop_position",
    "railway": "station",
    "railway:station_category": "6",
    "train": "yes",
    "uic_ref": "8001880"
  }
},
{
  "type": "node",
  "id": 13929109,
  "lat": 47.5596144,
  "lon": 11.1393003,
  "tags": {
    "name": "Oberau",
    "public_transport": "station",
    "railway": "station",
    "railway:station_category": "6",
    "uic_name": "Oberau",
    "uic_ref": "8004506",
    "wheelchair": "limited"
  }
},
{
  "type": "node",
  "id": 14012290,
  "lat": 49.1221231,
  "lon": 12.1251888,
  "tags": {
    "name": "Regenstauf",
    "public_transport": "station",
    "railway": "station",
    "railway:ref": "NRGF"
  }
},
{
  "type": "node",
  "id": 14012294,
  "lat": 49.3627133,
  "lon": 12.1014676,
  "tags": {
    "name": "Irrenlohe",
    "railway": "station"
  }
},
{
  "type": "node",
  "id": 14012295,
  "lat": 49.3926333,
  "lon": 12.1305235,
  "tags": {
    "name": "Schwarzenfeld (Opf)",
    "railway": "station",
    "wheelchair": "no"
  }
},
{
  "type": "node",
  "id": 14012296,
  "lat": 49.4470728,
  "lon": 12.1805267,
  "tags": {
    "name": "Nabburg",
    "railway": "station",
    "wheelchair": "limited"
  }
},
{
  "type": "node",
  "id": 14012297,
  "lat": 49.4855124,
  "lon": 12.1676595,
  "tags": {
    "name": "Pfreimd",
    "railway": "station",
    "wheelchair": "yes"
  }
},
{
  "type": "node",
  "id": 14012298,
  "lat": 49.5386916,
  "lon": 12.1466093,
  "tags": {
    "name": "Wernberg",
    "railway": "station",
    "toilets:wheelchair": "no",
    "wheelchair": "no"
  }
},
{
  "type": "node",
  "id": 14012299,
  "lat": 49.5799188,
  "lon": 12.1394972,
  "tags": {
    "name": "Luhe",
    "railway": "station",
    "wheelchair": "limited"
  }
},
{
  "type": "node",
  "id": 14012301,
  "lat": 49.5981032,
  "lon": 12.1272453,
  "tags": {
    "name": "Luhe-Wildenau",
    "railway": "station",
    "wheelchair": "yes"
  }
},
{
  "type": "node",
  "id": 14015271,
  "lat": 48.7334119,
  "lon": 11.5737937,
  "tags": {
    "name": "Ernsgaden",
    "public_transport": "stop_position",
    "rail": "yes",
    "railway": "halt",
    "uic_ref": "8001853"
  }
},
{
  "type": "node",
  "id": 14015273,
  "lat": 48.7586912,
  "lon": 11.6884688,
  "tags": {
    "created_by": "JOSM",
    "name": "Münchsmünster",
    "public_transport": "stop_position",
    "rail": "yes",
    "railway": "station",
    "uic_ref": "8004165"
  }
},
{
  "type": "node",
  "id": 14015274,
  "lat": 48.8002511,
  "lon": 11.7636655,
  "tags": {
    "name": "Neustadt (Donau)",
    "public_transport": "stop_position",
    "rail": "yes",
    "railway": "station",
    "uic_ref": "8004326",
    "wheelchair": "yes"
  }
},
{
  "type": "node",
  "id": 14015277,
  "lat": 48.9023773,
  "lon": 11.9337902,
  "tags": {
    "name": "Saal (Donau)",
    "public_transport": "stop_position",
    "rail": "yes",
    "railway": "station",
    "uic_ref": "8005238",
    "wheelchair": "no"
  }
},
{
  "type": "node",
  "id": 14015279,
  "lat": 48.9317040,
  "lon": 12.0139619,
  "tags": {
    "name": "Poikam",
    "public_transport": "stop_position",
    "rail": "yes",
    "railway": "halt",
    "uic_ref": "8004853"
  }
},
{
  "type": "node",
  "id": 14015280,
  "lat": 48.9448655,
  "lon": 12.0037725,
  "tags": {
    "name": "Gundelshausen",
    "public_transport": "stop_position",
    "rail": "yes",
    "railway": "halt",
    "railway:ref": "NGU",
    "uic_ref": "8002468"
  }
},
{
  "type": "node",
  "id": 14015282,
  "lat": 48.9908182,
  "lon": 12.0376713,
  "tags": {
    "name": "Sinzing",
    "public_transport": "stop_position",
    "rail": "yes",
    "railway": "halt",
    "railway:ref": "NSIH",
    "uic_ref": "80850438",
    "wheelchair": "yes"
  }
},
{
  "type": "node",
  "id": 14016470,
  "lat": 48.3028564,
  "lon": 10.3656882,
  "tags": {
    "name": "Neuburg (Kammel)",
    "operator": "Deutsche Bahn",
    "railway": "halt",
    "railway:ref": "MNBK"
  }
},
{
  "type": "node",
  "id": 14016471,
  "lat": 48.3418437,
  "lon": 10.3385604,
  "tags": {
    "name": "Ellzee",
    "note": "Aufgrund fehlender Weichen im Stationsbereich offenbar Haltepunkt (railway=halt) statt Bahnhof (railway=station)",
    "operator": "Deutsche Bahn",
    "railway": "halt",
    "railway:ref": "MELZ"
  }
},
{
  "type": "node",
  "id": 14016472,
  "lat": 48.3702265,
  "lon": 10.3021117,
  "tags": {
    "name": "Ichenhausen",
    "name:als": "Ichahausa",
    "name:ru": "Ихенхаузен",
    "note": "Aufgrund fehlender Weichen im Stationsbereich offenbar Haltepunkt (railway=halt) statt Bahnhof (railway=station)",
    "operator": "Deutsche Bahn",
    "railway": "halt",
    "railway:ref": "MIHN"
  }
},
{
  "type": "node",
  "id": 14016473,
  "lat": 48.4118068,
  "lon": 10.2884715,
  "tags": {
    "name": "Kleinkötz",
    "note": "Aufgrund fehlender Weichen im Stationsbereich offenbar Haltepunkt (railway=halt) statt Bahnhof (railway=station)",
    "railway": "halt",
    "railway:ref": "MKKZ"
  }
},
{
  "type": "node",
  "id": 14016474,
  "lat": 48.4383843,
  "lon": 10.2697126,
  "tags": {
    "name": "Wasserburg (Günz)",
    "note": "Aufgrund fehlender Weichen im Stationsbereich offenbar Haltepunkt (railway=halt) statt Bahnhof (railway=station)",
    "operator": "Deutsche Bahn",
    "railway": "halt",
    "railway:ref": "MWSG",
    "wheelchair": "no"
  }
},
{
  "type": "node",
  "id": 14016623,
  "lat": 48.3888574,
  "lon": 10.2982059,
  "tags": {
    "name": "Hochwang",
    "note": "Aufgrund fehlender Weichen im Stationsbereich offenbar Haltepunkt (railway=halt) statt Bahnhof (railway=station)",
    "operator": "Deutsche Bahn",
    "railway": "halt",
    "railway:ref": "MHWG"
  }
},
{
  "type": "node",
  "id": 14017100,
  "lat": 48.2477524,
  "lon": 10.3585307,
  "tags": {
    "addr:city": "Krumbach",
    "addr:country": "DE",
    "addr:postcode": "86381",
    "name": "Krumbach (Schwaben)",
    "operator": "Deutsche Bahn",
    "railway": "station",
    "railway:ref": "MKRB"
  }
},
{
  "type": "node",
  "id": 14017102,
  "lat": 48.2013510,
  "lon": 10.3836565,
  "tags": {
    "name": "Aletshausen",
    "note": "Aufgrund fehlender Weichen im Stationsbereich offenbar Haltepunkt (railway=halt) statt Bahnhof (railway=station)",
    "operator": "Deutsche Bahn",
    "railway": "halt",
    "railway:ref": "MALH"
  }
},
{
  "type": "node",
  "id": 14017103,
  "lat": 48.1804120,
  "lon": 10.3824550,
  "tags": {
    "name": "Haupeltshofen",
    "note": "Aufgrund fehlender Weichen im Stationsbereich offenbar Haltepunkt (railway=halt) statt Bahnhof (railway=station)",
    "operator": "Deutsche Bahn",
    "railway": "halt",
    "railway:ref": "MHPH",
    "wheelchair": "limited"
  }
},
{
  "type": "node",
  "id": 14017104,
  "lat": 48.1386326,
  "lon": 10.4084745,
  "tags": {
    "name": "Breitenbrunn (Schwab)",
    "note": "Aufgrund fehlender Weichen im Stationsbereich offenbar Haltepunkt (railway=halt) statt Bahnhof (railway=station)",
    "railway": "halt",
    "railway:ref": "MBRN",
    "wheelchair": "yes"
  }
},
{
  "type": "node",
  "id": 14017105,
  "lat": 48.1258714,
  "lon": 10.4298801,
  "tags": {
    "name": "Weilbach",
    "railway": "halt",
    "railway:ref": "MWLB"
  }
},
{
  "type": "node",
  "id": 14017106,
  "lat": 48.1177380,
  "lon": 10.4518956,
  "tags": {
    "name": "Pfaffenhausen",
    "operator": "Deutsche Bahn",
    "railway": "station",
    "railway:ref": "MPFH"
  }
},
{
  "type": "node",
  "id": 14017107,
  "lat": 48.1008804,
  "lon": 10.4827265,
  "tags": {
    "name": "Hausen (Schwab)",
    "note": "Aufgrund fehlender Weichen im Stationsbereich offenbar Haltepunkt (railway=halt) statt Bahnhof (railway=station)",
    "operator": "Deutsche Bahn",
    "railway": "station",
    "railway:ref": "MHNS"
  }
},
{
  "type": "node",
  "id": 14017108,
  "lat": 48.0781988,
  "lon": 10.5037627,
  "tags": {
    "name": "Nassenbeuren",
    "note": "Aufgrund fehlender Weichen im Stationsbereich offenbar Haltepunkt (railway=halt) statt Bahnhof (railway=station)",
    "operator": "Deutsche Bahn",
    "railway": "halt",
    "railway:ref": "MNBN"
  }
},
{
  "type": "node",
  "id": 14017109,
  "lat": 48.0448775,
  "lon": 10.5016762,
  "tags": {
    "addr:city": "Mindelheim",
    "addr:country": "DE",
    "addr:postcode": "87719",
    "addr:street": "Bahnhofstraße",
    "name": "Mindelheim",
    "operator": "Deutsche Bahn",
    "railway": "station",
    "railway:ref": "MMH",
    "uic_ref": "8000338"
  }
},
{
  "type": "node",
  "id": 14017137,
  "lat": 48.2212950,
  "lon": 10.3745349,
  "tags": {
    "name": "Niederraunau",
    "note": "Aufgrund fehlender Weichen im Stationsbereich offenbar Haltepunkt (railway=halt) statt Bahnhof (railway=station)",
    "operator": "Deutsche Bahn",
    "railway": "halt",
    "railway:ref": "MNRU"
  }
},
{
  "type": "node",
  "id": 14017153,
  "lat": 48.1628946,
  "lon": 10.3907772,
  "tags": {
    "name": "Loppenhausen",
    "note": "Aufgrund fehlender Weichen im Stationsbereich offenbar Haltepunkt (railway=halt) statt Bahnhof (railway=station)",
    "operator": "Deutsche Bahn",
    "railway": "halt",
    "railway:ref": "MLOH"
  }
},
{
  "type": "node",
  "id": 14332499,
  "lat": 48.2671202,
  "lon": 12.1597907,
  "tags": {
    "name": "Dorfen Bahnhof",
    "note": "\"Dorfen Bahnhof\" (und nicht \"Bahnhof Dorfen\") ist die offizielle Betriebsstellenbezeichnung",
    "operator": "DB Station&Service AG",
    "platforms": "3",
    "public_transport": "station",
    "railway": "station",
    "railway:ref": "MDFN",
    "wheelchair": "limited"
  }
},
{
  "type": "node",
  "id": 14334686,
  "lat": 48.6416041,
  "lon": 12.4853919,
  "tags": {
    "name": "Dingolfing",
    "operator": "DB Netz AG",
    "railway": "station",
    "railway:ref": "MDIF",
    "uic_ref": "80264424"
  }
},
{
  "type": "node",
  "id": 14334687,
  "lat": 48.6830448,
  "lon": 12.6955791,
  "tags": {
    "name": "Landau (Isar)",
    "operator": "DB Netz AG",
    "railway": "station",
    "railway:ref": "MLDI",
    "uic_ref": "80165456"
  }
},
{
  "type": "node",
  "id": 14334688,
  "lat": 48.7795307,
  "lon": 12.8643256,
  "tags": {
    "name": "Plattling",
    "public_transport": "stop_position",
    "rail": "yes",
    "railway": "station",
    "railway:pzb": "yes",
    "railway:ref": "NPL",
    "uic_ref": "8000301",
    "wheelchair": "yes"
  }
},
{
  "type": "node",
  "id": 14334689,
  "lat": 48.6955581,
  "lon": 13.0184249,
  "tags": {
    "name": "Osterhofen(Nby)",
    "railway": "station",
    "railway:pzb": "yes",
    "wheelchair": "limited"
  }
},
{
  "type": "node",
  "id": 14334691,
  "lat": 48.6295141,
  "lon": 13.1909519,
  "tags": {
    "name": "Vilshofen(Niederbay)",
    "operator": "DB Netz AG",
    "railway": "station",
    "railway:pzb": "yes",
    "railway:ref": "NVI",
    "wheelchair": "limited"
  }
},
{
  "type": "node",
  "id": 14334692,
  "lat": 48.5737124,
  "lon": 13.4504744,
  "tags": {
    "name": "Passau Hbf",
    "operator": "DB",
    "public_transport": "station",
    "railway": "station",
    "railway:pzb": "yes",
    "railway:ref": "NPA",
    "railway:ref:ÖBB": "Pa",
    "railway:station_category": "3",
    "uic_name": "Passau Hbf",
    "uic_ref": "8000298",
    "wheelchair": "no",
    "wikipedia": "de:Passau Hauptbahnhof"
  }
},
{
  "type": "node",
  "id": 14342534,
  "lat": 48.5261819,
  "lon": 12.0335844,
  "tags": {
    "name": "Gündlkofen",
    "public_transport": "stop_position",
    "rail": "yes",
    "railway": "station"
  }
},
{
  "type": "node",
  "id": 14342535,
  "lat": 48.5160197,
  "lon": 11.9977829,
  "tags": {
    "name": "Bruckberg",
    "public_transport": "stop_position",
    "rail": "yes",
    "railway": "station"
  }
},
{
  "type": "node",
  "id": 14342536,
  "lat": 48.4704614,
  "lon": 11.9306228,
  "tags": {
    "description": "Moosburg, Gleis 2",
    "name": "Moosburg",
    "public_transport": "stop_position",
    "rail": "yes",
    "railway": "station",
    "ref": "2",
    "train": "yes",
    "wheelchair": "no"
  }
},
{
  "type": "node",
  "id": 14405187,
  "lat": 48.7206615,
  "lon": 11.3303603,
  "tags": {
    "name": "Weichering",
    "railway": "station",
    "railway:ref": "MWEI",
    "uic_ref": "8006256"
  }
},
{
  "type": "node",
  "id": 14405188,
  "lat": 48.7212833,
  "lon": 11.2589851,
  "tags": {
    "name": "Rohrenfeld",
    "railway": "station",
    "railway:ref": "MRFD",
    "uic_ref": "8005149"
  }
},
{
  "type": "node",
  "id": 14405191,
  "lat": 48.7113920,
  "lon": 11.0505113,
  "tags": {
    "name": "Straß-Moos",
    "railway": "halt",
    "railway:ref": "MSMS",
    "uic_ref": "8005749"
  }
},
{
  "type": "node",
  "id": 14405765,
  "lat": 48.5745214,
  "lon": 10.4248834,
  "tags": {
    "name": "Lauingen",
    "railway": "station",
    "wheelchair": "no"
  }
},
{
  "type": "node",
  "id": 14405766,
  "lat": 48.5811828,
  "lon": 10.4889080,
  "tags": {
    "name": "Dillingen an der Donau",
    "railway": "station",
    "wheelchair": "limited"
  }
},
{
  "type": "node",
  "id": 14405767,
  "lat": 48.6186248,
  "lon": 10.5665937,
  "tags": {
    "name": "Höchstädt (Donau)",
    "railway": "station",
    "wheelchair": "no"
  }
},
{
  "type": "node",
  "id": 14405768,
  "lat": 48.6437947,
  "lon": 10.6154001,
  "tags": {
    "name": "Blindheim",
    "public_transport": "station",
    "railway": "station",
    "railway:ref": "MBLM",
    "wheelchair": "yes"
  }
},
{
  "type": "node",
  "id": 14405769,
  "lat": 48.6564081,
  "lon": 10.6427546,
  "tags": {
    "name": "Schwenningen (Bayern)",
    "railway": "station",
    "wheelchair": "yes"
  }
},
{
  "type": "node",
  "id": 14405770,
  "lat": 48.6791840,
  "lon": 10.6940591,
  "tags": {
    "name": "Tapfheim",
    "railway": "station",
    "wheelchair": "limited"
  }
},
{
  "type": "node",
  "id": 15430956,
  "lat": 49.3765804,
  "lon": 10.1905805,
  "tags": {
    "name": "Rothenburg ob der Tauber",
    "operator": "Deutsche Bahn",
    "railway": "station",
    "railway:ref": "NROT",
    "uic_ref": "8005190"
  }
},
{
  "type": "node",
  "id": 15430958,
  "lat": 49.4005668,
  "lon": 10.2269148,
  "tags": {
    "name": "Schweinsdorf",
    "note": "Bedarfshalt",
    "operator": "Deutsche Bahn",
    "public_transport": "stop_position",
    "railway": "halt",
    "railway:ref": "NSWF",
    "train": "yes"
  }
},
{
  "type": "node",
  "id": 15430959,
  "lat": 49.4170368,
  "lon": 10.2422588,
  "tags": {
    "name": "Hartershofen",
    "note": "Bedarfshalt",
    "operator": "Deutsche Bahn",
    "public_transport": "stop_position",
    "railway": "halt",
    "railway:ref": "NHAR",
    "train": "yes"
  }
},
{
  "type": "node",
  "id": 15430960,
  "lat": 49.4532322,
  "lon": 10.2734045,
  "tags": {
    "local_ref": "3",
    "name": "Steinach (b Rothenburg o d Tauber)",
    "note": "Offizielle Betriebsstellenbezeichnung der DB Netz AG",
    "operator": "Deutsche Bahn",
    "public_transport": "stop_position",
    "railway": "station",
    "railway:ref": "NSTN",
    "railway:station_category": "4",
    "train": "yes",
    "uic_ref": "8000091",
    "wikipedia": "de:Bahnhof Steinach (bei Rothenburg ob der Tauber)"
  }
},
{
  "type": "node",
  "id": 15431109,
  "lat": 49.2980329,
  "lon": 10.5775748,
  "tags": {
    "addr:city": "Ansbach",
    "addr:housenumber": "2",
    "addr:postcode": "91522",
    "addr:street": "Bahnhofsplatz",
    "name": "Ansbach",
    "on_demand": "no",
    "operator": "DB Station&Service AG",
    "public_transport": "station",
    "railway": "station",
    "railway:ref": "NAN",
    "railway:station_category": "3",
    "toilets:wheelchair": "yes",
    "uic_ref": "8000009",
    "website": "http://www.bahnhof.de/bahnhof-de/Ansbach.html",
    "wheelchair": "no",
    "wheelchair:description": "Gleis 1 und 2 (S-Bahn nach Nürnberg) rollstuhlgerecht, alle anderen Gleise nach 19 Uhr nicht mehr erreichbar. Kein Aufzug vorhanden, Einstiegshilfe der DB (Mobilitätsservice) buchen.",
    "wikipedia": "de:Bahnhof Ansbach"
  }
},
{
  "type": "node",
  "id": 15431113,
  "lat": 49.4183241,
  "lon": 10.4224846,
  "tags": {
    "name": "Oberdachstetten",
    "operator": "DB Netz AG",
    "public_transport": "stop_position",
    "railway": "station",
    "railway:ref": "NON",
    "train": "yes"
  }
},
{
  "type": "node",
  "id": 15431454,
  "lat": 49.4431305,
  "lon": 10.3125130,
  "tags": {
    "name": "Burgbernheim-Wildbad",
    "operator": "Deutsche Bahn",
    "public_transport": "stop_position",
    "railway": "halt",
    "railway:ref": "NBUW",
    "start_date": "2010-12-12",
    "train": "yes",
    "wheelchair": "limited"
  }
},
{
  "type": "node",
  "id": 15431855,
  "lat": 49.3107299,
  "lon": 10.7113340,
  "tags": {
    "name": "Wicklesgreuth",
    "operator": "DB Station&Service AG",
    "railway": "station",
    "railway:ref": "NWK",
    "wheelchair": "yes"
  }
},
{
  "type": "node",
  "id": 15431860,
  "lat": 49.2827171,
  "lon": 10.7823863,
  "tags": {
    "name": "Neuendettelsau",
    "operator": "DB Station&Service AG",
    "public_transport": "stop_position",
    "railway": "halt",
    "railway:ref": "NNDU",
    "train": "yes",
    "wheelchair": "yes"
  }
},
{
  "type": "node",
  "id": 15431862,
  "lat": 49.2498273,
  "lon": 10.8255322,
  "tags": {
    "name": "Windsbach",
    "note": "Aufgrund fehlender Weichen offenbar Haltepunkt (railway=halt) und kein Bahnhof (railway=station)",
    "operator": "DB Station&Service AG",
    "public_transport": "stop_position",
    "railway": "halt",
    "railway:ref": "NWIN",
    "train": "yes",
    "wheelchair": "no"
  }
},
{
  "type": "node",
  "id": 15431945,
  "lat": 49.2931164,
  "lon": 10.6616340,
  "tags": {
    "name": "Sachsen (b Ansbach)",
    "note": "\"Sachsen (b Ansbach)\" ist die offizielle Betriebsstellenbezeichnung",
    "operator": "DB Station&Service AG",
    "railway": "halt",
    "railway:ref": "NSA",
    "wheelchair": "yes"
  }
},
{
  "type": "node",
  "id": 15432249,
  "lat": 49.4254652,
  "lon": 11.0178884,
  "tags": {
    "name": "Nürnberg-Stein",
    "note": "\"Nürnberg-Stein\" ist die offizielle Betriebsstellenbezeichnung",
    "operator": "DB Station&Service AG",
    "railway": "station",
    "railway:ref": "NNST",
    "wikipedia": "de:Bahnhof Nürnberg-Stein"
  }
},
{
  "type": "node",
  "id": 15477970,
  "lat": 49.2009472,
  "lon": 10.6791493,
  "tags": {
    "name": "Triesdorf",
    "operator": "DB Netz AG",
    "public_transport": "station",
    "railway": "station",
    "railway:ref": "NTF"
  }
},
{
  "type": "node",
  "id": 15477972,
  "lat": 49.1203725,
  "lon": 10.7551895,
  "tags": {
    "local_ref": "1",
    "name": "Gunzenhausen",
    "operator": "DB Station&Service AG",
    "public_transport": "stop_position",
    "railway": "station",
    "railway:ref": "NGUN",
    "railway:station_category": "4",
    "train": "yes",
    "uic_ref": "8000385",
    "wheelchair": "no",
    "wikipedia": "de:Bahnhof Gunzenhausen"
  }
},
{
  "type": "node",
  "id": 17658611,
  "lat": 49.8144694,
  "lon": 8.6259571,
  "tags": {
    "name": "Darmstadt-Eberstadt",
    "public_transport": "station",
    "railway": "station",
    "railway:ref": "FDE",
    "train": "yes",
    "wheelchair": "no"
  }
},
{
  "type": "node",
  "id": 17658613,
  "lat": 49.7604953,
  "lon": 8.6036351,
  "tags": {
    "name": "Bickenbach (Bergstraße)",
    "operator": "DB Station & Service AG",
    "public_transport": "station",
    "railway": "station",
    "railway:position": "40.744",
    "railway:ref": "FBI",
    "short_name": "Bickenbach (Bergstr.)",
    "train": "yes",
    "uic_ref": "8000948"
  }
},
{
  "type": "node",
  "id": 17658624,
  "lat": 49.7016019,
  "lon": 8.6132493,
  "tags": {
    "name": "Bensheim-Auerbach",
    "operator": "DB Station & Service AG",
    "railway": "station",
    "railway:position": "47.164",
    "railway:ref": "FBAU",
    "ref:ESTW": "43",
    "uic_ref": "8000877",
    "wheelchair": "limited"
  }
},
{
  "type": "node",
  "id": 17658630,
  "lat": 49.6807910,
  "lon": 8.6168080,
  "tags": {
    "name": "Bensheim",
    "operator": "DB Netz AG; DB Station&Service AG",
    "public_transport": "station",
    "railway": "station",
    "railway:position": "49.495",
    "railway:ref": "FBH",
    "railway:station_category": "4",
    "ref:ESTW": "44",
    "uic_ref": "8000031",
    "wheelchair": "yes",
    "wikipedia": "de:Bahnhof Bensheim"
  }
},
{
  "type": "node",
  "id": 17658651,
  "lat": 49.5913178,
  "lon": 8.6486167,
  "tags": {
    "name": "Hemsbach",
    "public_transport": "station",
    "railway": "station",
    "railway:ref": "RHCH",
    "uic_ref": "8002748"
  }
},
{
  "type": "node",
  "id": 18065629,
  "lat": 49.5959989,
  "lon": 11.0016905,
  "tags": {
    "local_ref": "2",
    "name": "Erlangen",
    "operator": "DB Station&Service AG",
    "public_transport": "stop_position",
    "railway": "station",
    "railway:ref": "NER",
    "railway:station_category": "3",
    "train": "yes",
    "uic_ref": "8001844",
    "wheelchair": "yes",
    "wheelchair:description:en": "platform 4 accessible only via a long and steep ramp",
    "wikipedia": "de:Bahnhof Erlangen"
  }
},
{
  "type": "node",
  "id": 19087933,
  "lat": 48.9377752,
  "lon": 8.2805466,
  "tags": {
    "name": "Durmersheim Nord",
    "network": "Karlsruher Verkehrsverbund (KVV)",
    "public_transport": "station",
    "railway": "halt",
    "railway:ref": "RDUN",
    "wheelchair": "yes"
  }
},
{
  "type": "node",
  "id": 19087937,
  "lat": 48.9286309,
  "lon": 8.2724003,
  "tags": {
    "name": "Durmersheim",
    "network": "Karlsruher Verkehrsverbund",
    "public_transport": "station",
    "railway": "station",
    "railway:ref": "RDRM",
    "wheelchair": "no"
  }
},
{
  "type": "node",
  "id": 19087938,
  "lat": 48.9105348,
  "lon": 8.2580046,
  "tags": {
    "name": "Bietigheim",
    "network": "Karlsruher Verkehrsverbund (KVV)",
    "public_transport": "station",
    "railway": "halt",
    "railway:ref": "RBIE"
  }
},
{
  "type": "node",
  "id": 19087940,
  "lat": 48.8885741,
  "lon": 8.2405252,
  "tags": {
    "name": "Ötigheim",
    "network": "Karlsruher Verkehrsverbund (KVV)",
    "public_transport": "station",
    "railway": "station",
    "railway:ref": "ROH",
    "wheelchair": "yes"
  }
},
{
  "type": "node",
  "id": 19092907,
  "lat": 48.5036126,
  "lon": 8.3720532,
  "tags": {
    "name": "Baiersbronn",
    "network": "Verkehrs-Gemeinschaft Landkreis Freudenstadt",
    "operator": "Albtal-Verkehrs-Gesellschaft mbH",
    "railway": "station",
    "railway:position": "49,7",
    "railway:ref": "RBSN",
    "wheelchair": "yes"
  }
},
{
  "type": "node",
  "id": 19096025,
  "lat": 48.5556284,
  "lon": 8.3973759,
  "tags": {
    "light_rail": "yes",
    "name": "Röt",
    "network": "Verkehrs-Gemeinschaft Landkreis Freudenstadt",
    "on_demand": "yes",
    "operator": "Albtal-Verkehrs-Gesellschaft mbH",
    "public_transport": "stop_position",
    "railway": "halt",
    "railway:position": "43,0",
    "railway:ref": "RRT",
    "train": "yes",
    "wheelchair": "yes"
  }
},
{
  "type": "node",
  "id": 19096063,
  "lat": 48.5825348,
  "lon": 8.3912680,
  "tags": {
    "name": "Huzenbach",
    "network": "Verkehrs-Gemeinschaft Landkreis Freudenstadt",
    "on_demand": "yes",
    "railway": "halt",
    "railway:position": "39,9",
    "railway:ref": "RHUB",
    "start_date": "2003-12-14",
    "wheelchair": "yes"
  }
},
{
  "type": "node",
  "id": 19096224,
  "lat": 48.5988513,
  "lon": 8.3836758,
  "tags": {
    "name": "Schwarzenberg",
    "network": "Verkehrs-Gemeinschaft Landkreis Freudenstadt",
    "on_demand": "yes",
    "operator": "Albtal-Verkehrs-Gesellschaft mbH",
    "public_transport": "platform",
    "railway": "halt",
    "railway:position": "37,9",
    "railway:ref": "RSW",
    "start_date": "2003-12-14",
    "train": "yes",
    "wheelchair": "yes"
  }
},
{
  "type": "node",
  "id": 21276659,
  "lat": 49.3233679,
  "lon": 12.6815049,
  "tags": {
    "name": "Geigant",
    "public_transport": "stop_position",
    "rail": "yes",
    "railway": "halt"
  }
},
{
  "type": "node",
  "id": 21276684,
  "lat": 49.2466020,
  "lon": 12.6701883,
  "tags": {
    "name": "Willmering",
    "railway": "halt"
  }
},
{
  "type": "node",
  "id": 21276720,
  "lat": 49.2903602,
  "lon": 12.6831167,
  "tags": {
    "name": "Balbersdorf",
    "public_transport": "stop_position",
    "rail": "yes",
    "railway": "halt"
  }
},
{
  "type": "node",
  "id": 21294574,
  "lat": 50.1098709,
  "lon": 11.4519803,
  "tags": {
    "name": "Kulmbach",
    "public_transport": "station",
    "railway": "station",
    "railway:ref": "NKU",
    "uic_ref": "8003476",
    "wheelchair": "no"
  }
},
{
  "type": "node",
  "id": 21301567,
  "lat": 52.2582460,
  "lon": 8.2050134,
  "tags": {
    "name": "Wissingen",
    "railway": "station",
    "railway:ref": "HWIS",
    "railway:station_category": "6",
    "uic_ref": "8006503",
    "wheelchair": "yes"
  }
},
{
  "type": "node",
  "id": 21302157,
  "lat": 52.5142085,
  "lon": 13.3364598,
  "tags": {
    "addr:city": "Berlin",
    "addr:country": "DE",
    "addr:postcode": "10555",
    "addr:street": "Bachstraße",
    "addr:suburb": "Tiergarten",
    "contact:phone": "030 29743333",
    "contact:website": "http://www.s-bahn-berlin.de/fahrplanundnetz/bahnhof/uebersicht/151",
    "description": "S Tiergarten, Gleis 3",
    "light_rail": "yes",
    "name": "S Tiergarten",
    "network": "VBB",
    "public_transport": "stop_position",
    "railway": "station",
    "railway:station_category": "4",
    "ref": "3",
    "station": "light_rail",
    "train": "yes",
    "wheelchair": "yes",
    "wikidata": "Q572112",
    "wikipedia": "de:Bahnhof Berlin-Tiergarten"
  }
},
{
  "type": "node",
  "id": 21303961,
  "lat": 52.2361107,
  "lon": 8.2792155,
  "tags": {
    "name": "Westerhausen",
    "railway": "halt",
    "railway:ref": "HWTH",
    "railway:station_category": "6",
    "uic_ref": "8006367"
  }
},
{
  "type": "node",
  "id": 21303996,
  "lat": 52.2021593,
  "lon": 8.5741773,
  "tags": {
    "name": "Bünde (Westf)",
    "public_transport": "station",
    "railway": "station",
    "railway:ref": "HBDE",
    "railway:station_category": "4",
    "uic_ref": "8000059",
    "wheelchair": "no"
  }
},
{
  "type": "node",
  "id": 21304009,
  "lat": 52.1967257,
  "lon": 8.6439681,
  "tags": {
    "name": "Kirchlengern",
    "public_transport": "station",
    "railway": "station",
    "railway:station_category": "5",
    "train": "yes",
    "uic_ref": "8003288",
    "wheelchair": "yes"
  }
},
{
  "type": "node",
  "id": 21306303,
  "lat": 52.3691730,
  "lon": 9.8607771,
  "tags": {
    "name": "Hannover Anderten/Misburg",
    "operator": "DB Station&Service AG",
    "public_transport": "station",
    "railway": "halt",
    "railway:ref": "HAMI",
    "railway:station_category": "5",
    "wheelchair": "limited"
  }
},
{
  "type": "node",
  "id": 21306328,
  "lat": 52.3768045,
  "lon": 9.9739826,
  "tags": {
    "name": "Lehrte",
    "operator": "Deutsche Bahn",
    "public_transport": "station",
    "railway": "station",
    "railway:station_category": "3",
    "ref": "HLER",
    "wheelchair": "yes"
  }
},
{
  "type": "node",
  "id": 21308179,
  "lat": 52.4492981,
  "lon": 10.3217888,
  "tags": {
    "name": "Meinersen",
    "public_transport": "station",
    "railway": "station",
    "railway:station_category": "6",
    "shelter": "no",
    "tactile_paving": "yes",
    "train": "yes",
    "wheelchair": "yes"
  }
},
{
  "type": "node",
  "id": 21322676,
  "lat": 48.8605562,
  "lon": 8.2156411,
  "tags": {
    "alt_name": "Rastatt Bahnhof",
    "internet_access": "wlan",
    "name": "Rastatt",
    "network": "Karlsruher Verkehrsverbund (KVV)",
    "public_transport": "station",
    "railway": "station",
    "railway:ref": "RRA",
    "railway:station_category": "4",
    "short_name": "Rastatt Bf.",
    "uic_name": "Rastatt",
    "uic_ref": "8000306",
    "wheelchair": "limited",
    "wheelchair:description": "Kein Zugang zu Gleis 2 bis 6."
  }
},
{
  "type": "node",
  "id": 21385751,
  "lat": 52.5237432,
  "lon": 13.4648885,
  "tags": {
    "light_rail": "yes",
    "name": "S Storkower Straße",
    "note": "mangels Weichen nur ein Haltepunkt",
    "old_name": "Zentralviehhof",
    "railway": "halt",
    "railway:station_category": "4",
    "station": "light_rail",
    "website": "http://www.s-bahn-berlin.de/fahrplanundnetz/bahnhof/uebersicht/142",
    "wheelchair": "yes"
  }
},
{
  "type": "node",
  "id": 21386662,
  "lat": 48.6965896,
  "lon": 8.1293925,
  "tags": {
    "name": "Bühl (Baden)",
    "network": "Karlsruher Verkehrsverbund",
    "operator": "DB Netz AG;DB Station&Service AG",
    "public_transport": "station",
    "railway": "halt",
    "railway:ref": "RBUE",
    "railway:station_category": "5",
    "wheelchair": "yes"
  }
},
{
  "type": "node",
  "id": 21387034,
  "lat": 48.4043509,
  "lon": 8.0105616,
  "tags": {
    "name": "Gengenbach",
    "public_transport": "stop_position",
    "railway": "station",
    "railway:position": "9.5",
    "railway:ref": "RGB",
    "train": "yes"
  }
},
{
  "type": "node",
  "id": 21387066,
  "lat": 48.2989942,
  "lon": 8.0564370,
  "tags": {
    "name": "Steinach (Baden)",
    "public_transport": "stop_position",
    "railway": "halt",
    "railway:position": "22.7",
    "railway:ref": "RSNA",
    "wheelchair": "no"
  }
},
{
  "type": "node",
  "id": 21387242,
  "lat": 48.2119878,
  "lon": 8.2330666,
  "tags": {
    "name": "Hornberg",
    "operator": "DB Station&Service AG",
    "public_transport": "station",
    "railway": "station",
    "railway:position": "42.6",
    "railway:ref": "RHBG",
    "railway:station_category": "5",
    "uic_ref": "8003001",
    "wheelchair": "no",
    "wikipedia": "de:Hornberg#Verkehr"
  }
},
{
  "type": "node",
  "id": 21388465,
  "lat": 47.9833452,
  "lon": 8.4715316,
  "tags": {
    "fixme": "start_date?",
    "name": "Donaueschingen-Grüningen",
    "on_demand": "yes",
    "railway": "halt",
    "railway:position": "94,3",
    "railway:ref": "RDOG",
    "wheelchair": "yes"
  }
},
{
  "type": "node",
  "id": 21412509,
  "lat": 49.4745688,
  "lon": 8.6030889,
  "tags": {
    "name": "Ladenburg",
    "operator": "DB Station&Service AG;DB Netz AG",
    "public_transport": "station",
    "railway": "station",
    "railway:ref": "RLD",
    "wheelchair": "no"
  }
},
{
  "type": "node",
  "id": 21412516,
  "lat": 49.4487505,
  "lon": 8.5802752,
  "tags": {
    "name": "Mannheim-Friedrichsfeld",
    "new_name": "Neu-Edingen/Friedrichsfeld",
    "operator": "DB Station&Service AG",
    "railway": "station",
    "railway:ref": "RMF",
    "uic_ref": "8000631",
    "wikipedia": "de:Bahnhof Mannheim-Friedrichsfeld"
  }
},
{
  "type": "node",
  "id": 21412520,
  "lat": 49.5533988,
  "lon": 8.6653921,
  "tags": {
    "name": "Weinheim (Bergstr)",
    "public_transport": "station",
    "railway": "station",
    "railway:ref": "RWE",
    "railway:station_category": "4",
    "uic_ref": "8000377",
    "wheelchair": "no",
    "wikipedia": "de:Bahnhof Weinheim"
  }
},
{
  "type": "node",
  "id": 21412528,
  "lat": 49.5092690,
  "lon": 8.6336055,
  "tags": {
    "name": "Heddesheim/Hirschberg",
    "note": "vor Ort so mit Schrägstrich beschildert",
    "old_name": "Großsachsen-Heddesheim",
    "public_transport": "station",
    "railway": "station",
    "railway:ref": "RGCH",
    "uic_ref": "8002430",
    "wheelchair": "no"
  }
},
{
  "type": "node",
  "id": 21438697,
  "lat": 50.1462488,
  "lon": 11.0594940,
  "tags": {
    "name": "Lichtenfels",
    "public_transport": "station",
    "railway": "station",
    "railway:ref": "NLF",
    "railway:station_category": "3",
    "uic_ref": "8000228",
    "wheelchair": "yes",
    "wikipedia": "de:Bahnhof Lichtenfels"
  }
},
{
  "type": "node",
  "id": 21440829,
  "lat": 49.7997908,
  "lon": 11.0133464,
  "tags": {
    "name": "Buttenheim",
    "operator": "Deutsche Bahn",
    "public_transport": "stop_position",
    "railway": "halt",
    "railway:ref": "NBT",
    "train": "yes"
  }
},
{
  "type": "node",
  "id": 21474012,
  "lat": 53.7230360,
  "lon": 9.9075065,
  "tags": {
    "hvv:psv_type": "A",
    "name": "Quickborn Süd",
    "network": "HVV",
    "operator": "AKN",
    "railway": "station",
    "uic_name": "Quickborn Süd",
    "uic_ref": "8007064"
  }
},
{
  "type": "node",
  "id": 21487225,
  "lat": 52.5140767,
  "lon": 13.4197527,
  "tags": {
    "description": "S Jannowitzbrücke, Gleis 3",
    "name": "S Jannowitzbrücke",
    "note": "mangels Weichen ist das ein Haltepunkt, kein Bahnhof",
    "public_transport": "stop_position",
    "railway": "halt",
    "railway:station_category": "4",
    "ref": "3",
    "station": "light_rail",
    "train": "yes",
    "website": "http://www.s-bahn-berlin.de/fahrplanundnetz/bahnhof/jannowitzbruecke/84",
    "wheelchair": "yes"
  }
},
{
  "type": "node",
  "id": 21618706,
  "lat": 48.3439511,
  "lon": 8.3983296,
  "tags": {
    "name": "Alpirsbach",
    "network": "vgf",
    "operator": "DB Station&Service AG",
    "public_transport": "station",
    "railway": "station",
    "railway:position": "46,1",
    "railway:ref": "RALP",
    "railway:station_category": "6",
    "wheelchair": "limited"
  }
},
{
  "type": "node",
  "id": 21618713,
  "lat": 48.4181671,
  "lon": 8.4531621,
  "tags": {
    "name": "Loßburg-Rodt",
    "network": "vgf",
    "operator": "DB Station&Service AG",
    "public_transport": "station",
    "railway": "halt",
    "railway:position": "35,7",
    "railway:ref": "RLOS",
    "railway:station_category": "7",
    "wheelchair": "yes"
  }
},
{
  "type": "node",
  "id": 21661361,
  "lat": 52.7839495,
  "lon": 9.2311697,
  "tags": {
    "name": "Eystrup",
    "railway": "station",
    "railway:station_category": "5",
    "tactile_paving": "no",
    "uic_ref": "8001949",
    "wheelchair": "limited"
  }
},
{
  "type": "node",
  "id": 21661528,
  "lat": 52.6452950,
  "lon": 9.2179526,
  "tags": {
    "name": "Nienburg (Weser)",
    "public_transport": "stop_position",
    "railway": "station",
    "railway:ref": "HNBG",
    "railway:station_category": "3",
    "shelter": "yes",
    "tactile_paving": "yes",
    "train": "yes",
    "uic_ref": "8000279",
    "wheelchair": "yes",
    "wikipedia": "de:Bahnhof Nienburg (Weser)"
  }
},
{
  "type": "node",
  "id": 21760607,
  "lat": 53.5744860,
  "lon": 10.0372944,
  "tags": {
    "hha_ref": "HS",
    "hvv:barrier_free": "yes",
    "hvv:psv_type": "U",
    "layer": "1",
    "name": "Hamburger Straße",
    "public_transport": "stop_position",
    "railway": "station",
    "subway": "yes",
    "wheelchair": "yes"
  }
},
{
  "type": "node",
  "id": 21769883,
  "lat": 47.9977308,
  "lon": 7.8412948,
  "tags": {
    "addr:city": "Freiburg",
    "addr:country": "DE",
    "addr:housenumber": "5-7",
    "addr:postcode": "79098",
    "addr:street": "Bismarckallee",
    "name": "Freiburg (Breisgau) Hauptbahnhof",
    "operator": "DB Netz AG",
    "operator:node": "DB Netz AG",
    "operator:service": "DB Station&Service AG",
    "operator:service:class": "2",
    "public_transport": "station",
    "railway": "station",
    "railway:ref": "RF",
    "railway:station_category": "2",
    "ref:DB": "1893",
    "station:mode": "passengers; through; partial_juncted",
    "station_importance": "interregional",
    "toilets:wheelchair": "yes",
    "track_switches": "FIXME",
    "tracks": "8",
    "uic_name": "Freiburg (Breisgau) Hauptbahnhof",
    "uic_ref": "8000107",
    "website": "http://www.bahnhof.de/bahnhof-de/Freiburg__Breisgau__Hbf.html",
    "wheelchair": "yes",
    "wikipedia": "de:Freiburg (Breisgau) Hauptbahnhof"
  }
},
{
  "type": "node",
  "id": 21935926,
  "lat": 53.8423193,
  "lon": 10.7029357,
  "tags": {
    "name": "Lübeck-St. Jürgen",
    "railway": "station",
    "uic_name": "Lübeck St Jürgen",
    "uic_ref": "8003774",
    "wheelchair": "yes"
  }
},
{
  "type": "node",
  "id": 22314914,
  "lat": 53.5065706,
  "lon": 8.8592990,
  "tags": {
    "name": "Geestenseth",
    "public_transport": "station",
    "railway": "station"
  }
},
{
  "type": "node",
  "id": 22314990,
  "lat": 53.4605814,
  "lon": 9.3825440,
  "tags": {
    "hvv:psv_type": "R",
    "name": "Brest-Aspe",
    "public_transport": "station",
    "railway": "halt"
  }
},
{
  "type": "node",
  "id": 22315007,
  "lat": 53.4500852,
  "lon": 9.4990755,
  "tags": {
    "hvv:psv_type": "R",
    "name": "Harsefeld",
    "public_transport": "station",
    "railway": "station"
  }
},
{
  "type": "node",
  "id": 24965627,
  "lat": 53.0539423,
  "lon": 8.8871732,
  "tags": {
    "name": "Bremen-Hemelingen",
    "operator": "Deutsche Bahn",
    "public_transport": "station",
    "railway": "station",
    "railway:ref": "HBHM",
    "railway:station_category": "6",
    "train": "yes",
    "uic_ref": "8001157",
    "wheelchair": "no"
  }
},
{
  "type": "node",
  "id": 24985745,
  "lat": 47.8663045,
  "lon": 12.1041872,
  "tags": {
    "name": "Rosenheim Hochschule",
    "railway": "halt"
  }
},
{
  "type": "node",
  "id": 25149874,
  "lat": 53.8674276,
  "lon": 10.6694420,
  "tags": {
    "name": "Lübeck Hauptbahnhof",
    "public_transport": "station",
    "railway": "station",
    "railway:ref": "AL",
    "railway:station_category": "2",
    "uic_name": "Lübeck Hbf",
    "uic_ref": "8000237",
    "wikipedia": "de:Lübeck Hauptbahnhof"
  }
},
{
  "type": "node",
  "id": 25233549,
  "lat": 48.4962943,
  "lon": 9.2094107,
  "tags": {
    "description": "Reutlingen Hbf, Gleis 2",
    "name": "Reutlingen Hbf",
    "network": "Naldo",
    "operator": "DB Station&Service AG",
    "public_transport": "station",
    "railway": "station",
    "railway:ref": "TRE",
    "railway:station_category": "3",
    "ref": "2",
    "start_date": "1859",
    "train": "yes",
    "uic_ref": "8000314",
    "wheelchair": "yes"
  }
},
{
  "type": "node",
  "id": 25242218,
  "lat": 49.0023766,
  "lon": 8.3628394,
  "tags": {
    "name": "Karlsruhe West",
    "operator": "DB Station&Service AG",
    "railway": "station",
    "railway:station_category": "6",
    "wheelchair": "no"
  }
},
{
  "type": "node",
  "id": 25268471,
  "lat": 52.9206347,
  "lon": 9.2378577,
  "tags": {
    "name": "Verden (Aller)",
    "public_transport": "station",
    "railway": "station",
    "railway:ref": "HV",
    "railway:station_category": "3",
    "shelter": "yes",
    "tactile_paving": "yes",
    "uic_ref": "8006076",
    "wheelchair": "limited",
    "wikipedia": "de:Bahnhof Verden (Aller)"
  }
},
{
  "type": "node",
  "id": 25268512,
  "lat": 52.4223695,
  "lon": 9.4511513,
  "tags": {
    "name": "Wunstorf",
    "public_transport": "station",
    "railway": "station",
    "railway:ref": "HWUN",
    "railway:station_category": "3",
    "shelter": "yes",
    "tactile_paving": "yes",
    "uic_ref": "8000268",
    "wheelchair": "yes"
  }
},
{
  "type": "node",
  "id": 25295907,
  "lat": 53.6386208,
  "lon": 10.1560121,
  "tags": {
    "hha_ref": "ME",
    "hvv:barrier_free": "no",
    "hvv:psv_type": "U",
    "name": "Meiendorfer Weg",
    "public_transport": "stop_position",
    "railway": "station",
    "subway": "yes",
    "wheelchair": "no"
  }
},
{
  "type": "node",
  "id": 25346731,
  "lat": 51.0560180,
  "lon": 13.7081312,
  "tags": {
    "name": "Dresden-Friedrichstadt",
    "network": "VVO",
    "operator": "DB Station&Service AG",
    "public_transport": "station",
    "railway": "station",
    "railway:ref": "DF",
    "railway:station_category": "5",
    "wheelchair": "yes",
    "wheelchair_toilet": "no",
    "wikipedia": "de:Bahnhof Dresden-Friedrichstadt"
  }
},
{
  "type": "node",
  "id": 25397500,
  "lat": 51.0402452,
  "lon": 13.7320768,
  "tags": {
    "addr:city": "Dresden",
    "addr:country": "DE",
    "addr:housenumber": "4",
    "addr:postcode": "01069",
    "addr:street": "Wiener Platz",
    "layer": "3",
    "loc_name": "Dresden Hauptbahnhof",
    "name": "Dresden Hbf",
    "note": "\"Dresden Hbf\" (und nicht \"Dresden Hauptbahnhof\") ist die offizielle Betriebsstellenbezeichnung laut Fahrplanmedien und Betriebsstellenverzeichnis. Betrieblich ein Bahnhofsteil weitere Eigenschaften sind in der Relation vorhanden und daher hier überflüssi",
    "public_transport": "station",
    "railway": "station",
    "railway:ref": "DH",
    "railway:station_category": "1",
    "ref_name": "Hauptbahnhof, Dresden",
    "uic_ref": "8010085",
    "website": "http://www.bahnhof.de/bahnhof-de/Dresden_Hbf.html",
    "wheelchair": "yes",
    "wheelchair_toilet": "unknown",
    "wikidata": "Q704354",
    "wikipedia": "de:Dresden Hauptbahnhof"
  }
},
{
  "type": "node",
  "id": 25436271,
  "lat": 49.1244292,
  "lon": 8.5897927,
  "tags": {
    "name": "Bruchsal",
    "public_transport": "station",
    "railway": "station",
    "railway:ref": "RBR",
    "railway:station_category": "2",
    "ref:ESTW": "37",
    "uic_ref": "8000055",
    "wheelchair": "yes",
    "wikipedia": "de:Bahnhof Bruchsal"
  }
},
{
  "type": "node",
  "id": 25436312,
  "lat": 49.1668536,
  "lon": 8.6232742,
  "tags": {
    "name": "Ubstadt-Weiher",
    "railway": "halt",
    "railway:position": "46.214",
    "railway:ref": "RUW",
    "ref:IFOPT": "de:8215:1861",
    "uic_ref": "8005931",
    "wheelchair": "yes"
  }
},
{
  "type": "node",
  "id": 25436705,
  "lat": 49.2429096,
  "lon": 8.6521114,
  "tags": {
    "name": "Rot-Malsch",
    "operator": "DB Netz AG; DB Station&Service AG",
    "railway": "station",
    "railway:position": "37.467",
    "railway:ref": "RRM",
    "ref:ESTW": "34"
  }
},
{
  "type": "node",
  "id": 25436759,
  "lat": 49.3414053,
  "lon": 8.6687166,
  "tags": {
    "name": "St. Ilgen-Sandhausen",
    "railway": "halt",
    "railway:position": "26.487",
    "railway:ref": "RSIG",
    "uic_ref": "8005648",
    "wheelchair": "yes"
  }
},
{
  "type": "node",
  "id": 25436789,
  "lat": 49.3793639,
  "lon": 8.6753555,
  "tags": {
    "name": "Heidelberg-Kirchheim/Rohrbach",
    "old_name": "Heidelberg-Kirchheim",
    "railway": "station",
    "railway:ref": "RHKM",
    "wheelchair": "yes"
  }
},
{
  "type": "node",
  "id": 25439439,
  "lat": 49.4792363,
  "lon": 8.4694107,
  "tags": {
    "iata": "MHG",
    "name": "Mannheim Hbf",
    "note": "Adressdaten an Bahnhofsgebäude",
    "phone": "+496218301055",
    "public_transport": "station",
    "railway": "station",
    "railway:ref": "RM",
    "railway:ref:SBB": "MAN",
    "railway:station_category": "2",
    "uic_ref": "8000244",
    "wheelchair": "yes",
    "wikipedia": "de:Mannheim Hauptbahnhof"
  }
},
{
  "type": "node",
  "id": 25454809,
  "lat": 49.1208707,
  "lon": 8.1306136,
  "tags": {
    "name": "Steinweiler",
    "railway": "halt",
    "wheelchair": "yes"
  }
},
{
  "type": "node",
  "id": 25479399,
  "lat": 48.9665219,
  "lon": 8.8135815,
  "tags": {
    "name": "Ötisheim",
    "railway": "halt"
  }
},
{
  "type": "node",
  "id": 25479409,
  "lat": 48.9834803,
  "lon": 8.7816309,
  "tags": {
    "name": "Maulbronn West",
    "old_name": "Maulbronn Hbf",
    "railway": "station",
    "railway:ref": "TMW",
    "uic_ref": "8087080"
  }
},
{
  "type": "node",
  "id": 25479442,
  "lat": 48.9857873,
  "lon": 8.7533550,
  "tags": {
    "name": "Ölbronn-Dürrn",
    "railway": "halt"
  }
},
{
  "type": "node",
  "id": 25479463,
  "lat": 48.9935464,
  "lon": 8.7444075,
  "tags": {
    "name": "Knittlingen-Kleinvillars",
    "railway": "halt"
  }
},
{
  "type": "node",
  "id": 25479495,
  "lat": 49.0093811,
  "lon": 8.7220728,
  "tags": {
    "name": "Bretten-Ruit",
    "public_transport": "station",
    "railway": "halt",
    "railway:ref": "RBTI",
    "uic_ref": "8001131"
  }
},
{
  "type": "node",
  "id": 25479582,
  "lat": 49.0239592,
  "lon": 8.6482197,
  "tags": {
    "name": "Dürrenbüchig",
    "operator": "Albtal-Verkehrs-Gesellschaft mbH",
    "railway": "halt",
    "station_importance": "local"
  }
},
{
  "type": "node",
  "id": 25479601,
  "lat": 49.0155171,
  "lon": 8.6048083,
  "tags": {
    "alt_name": "Wössingen",
    "name": "Wössingen Bahnhof",
    "note": "vor Ort als \"Wössingen Bf\" beschildert!",
    "railway": "station",
    "railway:ref": "RWSN",
    "ref:IFOPT": "de:8215:1541",
    "short_name": "Wössingen Bf",
    "uic_ref": "8006539",
    "wheelchair": "no"
  }
},
{
  "type": "node",
  "id": 25480308,
  "lat": 49.1779053,
  "lon": 8.4940673,
  "tags": {
    "name": "Graben-Neudorf Nord",
    "operator:service:class": "6",
    "public_transport": "stop_position",
    "railway": "halt",
    "railway:station_category": "6",
    "start_date": "1994",
    "train": "yes"
  }
},
{
  "type": "node",
  "id": 25480338,
  "lat": 49.2291370,
  "lon": 8.4158175,
  "tags": {
    "name": "Rheinsheim",
    "network": "Karlsruher Verkehrsverbund;Verkehrsverbund Rhein-Neckar",
    "operator": "DB Station&Service AG",
    "public_transport": "stop_position",
    "railway": "halt",
    "railway:station_category": "6",
    "wheelchair": "yes"
  }
},
{
  "type": "node",
  "id": 25480373,
  "lat": 49.1971134,
  "lon": 8.4727066,
  "tags": {
    "name": "Huttenheim",
    "network": "Karlsruher Verkehrsverbund;Verkehrsverbund Rhein-Neckar",
    "operator": "DB Station&Service AG",
    "public_transport": "stop_position",
    "railway": "halt",
    "railway:station_category": "6",
    "train": "yes",
    "wheelchair": "yes"
  }
},
{
  "type": "node",
  "id": 25480391,
  "lat": 49.2255933,
  "lon": 8.3650813,
  "tags": {
    "name": "Germersheim",
    "network": "Karlsruher Verkehrsverbund (KVV)",
    "operator": "DB Station&Service AG",
    "public_transport": "station",
    "railway": "station",
    "railway:ref": "RGE",
    "railway:station_category": "5",
    "start_date": "1864",
    "uic_ref": "8000376",
    "wikipedia": "de:Bahnhof Germersheim"
  }
},
{
  "type": "node",
  "id": 25572169,
  "lat": 50.0997967,
  "lon": 11.3795051,
  "tags": {
    "name": "Mainleus",
    "note": "Aufgrund fehlender Weichen offenbar Haltepunkt (railway=halt) statt Bahnhof (railway=station)",
    "railway": "halt",
    "wheelchair": "no"
  }
},
{
  "type": "node",
  "id": 25572418,
  "lat": 49.7168017,
  "lon": 11.0699892,
  "tags": {
    "name": "Forchheim (Oberfr.)",
    "operator": "DB Station&Service AG",
    "public_transport": "station",
    "railway": "station",
    "railway:ref": "NFO",
    "toilets:wheelchair": "yes",
    "wheelchair": "no",
    "wheelchair:description": "Gleis 1 ist barrierefrei. Von dort fährt die S1 nach Hartmannshof. In Erlangen und Nürnberg ist ein barrierefreier Umstieg möglich."
  }
},
{
  "type": "node",
  "id": 25572703,
  "lat": 50.0909315,
  "lon": 11.6538809,
  "tags": {
    "fixme": "Aufgrund von Weichen im Stationsbereich tatsächlich Bahnhof (railway=station) statt Haltepunkt (railway=halt)?",
    "name": "Marktschorgast",
    "operator": "DB Station&Service AG",
    "railway": "station",
    "railway:ref": "NMSG",
    "uic_ref": "8003887"
  }
},
{
  "type": "node",
  "id": 25587943,
  "lat": 53.1352844,
  "lon": 8.7408695,
  "tags": {
    "name": "Bremen-Oslebshausen",
    "railway": "station",
    "railway:station_category": "5",
    "uic_ref": "8001162"
  }
},
{
  "type": "node",
  "id": 25600828,
  "lat": 50.1247556,
  "lon": 8.6069948,
  "tags": {
    "name": "Frankfurt-Rödelheim",
    "public_transport": "stop_position",
    "railway": "station",
    "ref": "2",
    "train": "yes",
    "uic_ref": "8002052",
    "wheelchair": "yes",
    "wheelchair:description": "Rampe noch in Bau, Fahrstühle erst teilweise zugängig"
  }
},
{
  "type": "node",
  "id": 25601842,
  "lat": 50.1039142,
  "lon": 8.6448659,
  "tags": {
    "alt_name": "Galluswarte",
    "name": "Frankfurt (Main) Galluswarte",
    "note": "Buchstaben am Signal Zs2 von rechts nach links: A, M, P, S",
    "operator": "DB Netz AG; DB Station & Service AG",
    "public_transport": "station",
    "railway": "station",
    "railway:ref": "FFGA",
    "ref:ESTW": "61",
    "ref:station": "1863",
    "uic_name": "Frankfurt(M)Galluswarte",
    "uic_ref": "8006690",
    "wheelchair": "no"
  }
},
{
  "type": "node",
  "id": 25608851,
  "lat": 50.0821950,
  "lon": 8.4752358,
  "tags": {
    "name": "Kriftel",
    "public_transport": "stop_position",
    "railway": "halt",
    "train": "yes",
    "wheelchair": "yes"
  }
},
{
  "type": "node",
  "id": 25608861,
  "lat": 50.0841449,
  "lon": 8.4444894,
  "tags": {
    "name": "Hofheim (Taunus)",
    "public_transport": "stop_position",
    "railway": "station",
    "train": "yes",
    "wheelchair": "yes"
  }
},
{
  "type": "node",
  "id": 25627273,
  "lat": 49.9121663,
  "lon": 8.4946956,
  "tags": {
    "name": "Groß-Gerau-Dornberg",
    "operator": "DB Station&Service AG",
    "public_transport": "station",
    "railway": "station",
    "railway:ref": "FDG",
    "train": "yes",
    "wheelchair": "yes",
    "wheelchair:description": "Bahnsteige barrierefrei mittels Aufzug erreichbar"
  }
},
{
  "type": "node",
  "id": 25715386,
  "lat": 51.7161537,
  "lon": 8.7612252,
  "tags": {
    "name": "Paderborn Kasseler Tor",
    "railway": "halt",
    "uic_ref": "8004744",
    "wheelchair": "no"
  }
},
{
  "type": "node",
  "id": 25717297,
  "lat": 51.9570193,
  "lon": 8.5313884,
  "tags": {
    "name": "Windelsbleiche",
    "operator": "DB Station & Service AG",
    "railway": "halt",
    "request_stop": "no",
    "uic_ref": "8006466"
  }
},
{
  "type": "node",
  "id": 25720648,
  "lat": 48.5151287,
  "lon": 9.2368040,
  "tags": {
    "name": "Reutlingen-Sondelfingen",
    "network": "Naldo",
    "operator": "DB Station&Service AG",
    "public_transport": "station",
    "railway": "halt",
    "railway:station_category": "6"
  }
},
{
  "type": "node",
  "id": 25723981,
  "lat": 51.5570926,
  "lon": 7.5852733,
  "tags": {
    "description": "Dortmund-Kurl, Gleis 1",
    "local_ref": "1",
    "name": "Dortmund-Kurl",
    "public_transport": "stop_position",
    "railway": "station",
    "ref": "1",
    "train": "yes",
    "uic_ref": "8001537",
    "wheelchair": "no"
  }
},
{
  "type": "node",
  "id": 25731497,
  "lat": 50.1467470,
  "lon": 9.0115492,
  "tags": {
    "name": "Rodenbach (Kreis Hanau)",
    "note": "\"Rodenbach (Hanau)\" bzw. \"Rodenbach bei Hanau\" ist die offizielle Betriebsstellenbezeichnung",
    "official_name": "Rodenbach (Hanau)",
    "operator": "DB Station&Service AG",
    "railway": "station",
    "railway:ref": "FROD",
    "short_name": "Rodenbach (Kr Hanau)",
    "wheelchair": "yes"
  }
},
{
  "type": "node",
  "id": 25731502,
  "lat": 50.1620787,
  "lon": 9.0582992,
  "tags": {
    "image": "https://upload.wikimedia.org/wikipedia/commons/7/75/Langenselbold_Bahnhof_20101210.jpg",
    "name": "Langenselbold",
    "operator": "DB Station&Service AG",
    "public_transport": "station",
    "railway": "station",
    "railway:ref": "FSLB",
    "railway:station_category": "4",
    "start_date": "1867-05-01",
    "uic_name": "Langenselbold",
    "uic_ref": "8003550",
    "wheelchair": "limited",
    "wikipedia": "de:Bahnhof Langenselbold"
  }
},
{
  "type": "node",
  "id": 25741455,
  "lat": 51.5324994,
  "lon": 7.4025928,
  "tags": {
    "description": "Dortmund-Huckarde, Gleis 1",
    "layer": "1",
    "level": "1",
    "local_ref": "1",
    "name": "Dortmund-Huckarde",
    "public_transport": "stop_position",
    "railway": "halt",
    "ref": "1",
    "train": "yes",
    "uic_ref": "8001505"
  }
},
{
  "type": "node",
  "id": 25743078,
  "lat": 51.5185985,
  "lon": 7.3275165,
  "tags": {
    "name": "Dortmund Bövinghausen",
    "public_transport": "stop_position",
    "railway": "halt",
    "train": "yes",
    "uic_ref": "8001528",
    "wheelchair": "no"
  }
},
{
  "type": "node",
  "id": 25759702,
  "lat": 53.0018734,
  "lon": 8.7910289,
  "tags": {
    "disused": "yes",
    "name": "Brinkum-Erichshof",
    "railway": "station"
  }
},
{
  "type": "node",
  "id": 25812955,
  "lat": 48.6449414,
  "lon": 8.3514083,
  "tags": {
    "name": "Raumünzach",
    "on_demand": "yes",
    "public_transport": "station",
    "railway": "station",
    "railway:ref": "RRMZ",
    "wheelchair": "yes"
  }
},
{
  "type": "node",
  "id": 25813134,
  "lat": 48.4814259,
  "lon": 8.3768983,
  "tags": {
    "name": "Friedrichstal (bei Freudenstadt)",
    "network": "Verkehrs-Gemeinschaft Landkreis Freudenstadt",
    "on_demand": "yes",
    "operator": "Albtal-Verkehrs-Gesellschaft mbH",
    "public_transport": "platform",
    "railway": "halt",
    "railway:position": "52,2",
    "railway:ref": "RFRT",
    "start_date": "2003-12-14",
    "train": "yes",
    "wheelchair": "yes"
  }
},
{
  "type": "node",
  "id": 25813183,
  "lat": 48.4603565,
  "lon": 8.4288959,
  "tags": {
    "name": "Freudenstadt Hauptbahnhof",
    "network": "Verkehrs-Gemeinschaft Landkreis Freudenstadt (vgf)",
    "operator": "DB Station&Service AG",
    "public_transport": "station",
    "railway": "station",
    "railway:ref": "TFS",
    "railway:station_category": "5",
    "ref": "2",
    "uic_ref": "8000110",
    "wheelchair": "yes"
  }
},
{
  "type": "node",
  "id": 25814044,
  "lat": 48.4674289,
  "lon": 8.4212472,
  "tags": {
    "name": "Freudenstadt Schulzentrum/Panoramabad",
    "network": "Verkehrs-Gemeinschaft Landkreis Freudenstadt",
    "on_demand": "yes",
    "operator": "Albtal-Verkehrs-Gesellschaft mbH",
    "railway": "halt",
    "railway:position": "56,2",
    "railway:ref": "TFSZ",
    "start_date": "2004-05-20",
    "train": "yes",
    "wheelchair": "limited"
  }
},
{
  "type": "node",
  "id": 25814047,
  "lat": 48.4675900,
  "lon": 8.4109630,
  "tags": {
    "name": "Freudenstadt Stadt",
    "network": "Verkehrs-Gemeinschaft Landkreis Freudenstadt (vgf)",
    "note": "\"Freudenstadt Stadt\" ist die offizielle Betriebsstellenbezeichnung",
    "railway": "station",
    "railway:position": "55.4",
    "railway:ref": "TFSS",
    "wheelchair": "yes"
  }
},
{
  "type": "node",
  "id": 25814710,
  "lat": 48.5106401,
  "lon": 8.3760021,
  "tags": {
    "name": "Baiersbronn Schulzentrum",
    "network": "Verkehrs-Gemeinschaft Landkreis Freudenstadt",
    "on_demand": "yes",
    "operator": "Albtal-Verkehrs-Gesellschaft mbH",
    "public_transport": "platform",
    "railway": "halt",
    "railway:position": "48,9",
    "railway:ref": "RBSS",
    "start_date": "2003-12-14",
    "train": "yes",
    "wheelchair": "yes"
  }
},
{
  "type": "node",
  "id": 25895645,
  "lat": 51.9079999,
  "lon": 8.6111454,
  "tags": {
    "name": "Schloß Holte",
    "railway": "station",
    "uic_ref": "8005369",
    "wheelchair": "yes"
  }
},
{
  "type": "node",
  "id": 25895646,
  "lat": 51.8240337,
  "lon": 8.6616891,
  "tags": {
    "name": "Hövelhof",
    "railway": "station",
    "uic_ref": "8002920"
  }
},
{
  "type": "node",
  "id": 25895648,
  "lat": 51.7703591,
  "lon": 8.7136996,
  "tags": {
    "name": "Sennelager",
    "railway": "station",
    "uic_ref": "8005534"
  }
},
{
  "type": "node",
  "id": 25895650,
  "lat": 51.8650780,
  "lon": 8.6420163,
  "tags": {
    "name": "Hövelriege",
    "railway": "station",
    "uic_ref": "8002921",
    "wheelchair": "limited"
  }
},
{
  "type": "node",
  "id": 25900008,
  "lat": 51.5532630,
  "lon": 7.6875990,
  "tags": {
    "name": "Unna-Königsborn",
    "operator": "DB Netz AG",
    "railway": "station",
    "uic_ref": "8005971",
    "wheelchair": "yes"
  }
},
{
  "type": "node",
  "id": 25900301,
  "lat": 51.5872051,
  "lon": 8.1625110,
  "tags": {
    "local_ref": "1",
    "name": "Bad Sassendorf",
    "public_transport": "stop_position",
    "railway": "station",
    "ref": "1",
    "uic_ref": "8000745",
    "wheelchair": "yes"
  }
},
{
  "type": "node",
  "id": 25900368,
  "lat": 51.6451828,
  "lon": 8.5102433,
  "tags": {
    "name": "Geseke",
    "railway": "station",
    "toilets:wheelchair": "no",
    "uic_ref": "8002262",
    "wheelchair": "no"
  }
},
{
  "type": "node",
  "id": 25900396,
  "lat": 51.7121370,
  "lon": 8.6454450,
  "tags": {
    "name": "Scharmede",
    "railway": "halt",
    "uic_ref": "8005322",
    "wheelchair": "no"
  }
},
{
  "type": "node",
  "id": 25968806,
  "lat": 47.9530095,
  "lon": 9.6439149,
  "tags": {
    "name": "Aulendorf",
    "operator": "DB Station&Service AG",
    "public_transport": "station",
    "railway": "station",
    "railway:ref": "TAU",
    "uic_ref": "8000014",
    "wheelchair": "limited"
  }
},
{
  "type": "node",
  "id": 25968817,
  "lat": 47.9938555,
  "lon": 9.6688372,
  "tags": {
    "name": "Bad Schussenried",
    "operator": "DB Station&Service AG",
    "public_transport": "station",
    "railway": "station",
    "railway:position": "151,3",
    "railway:ref": "TBSC"
  }
},
{
  "type": "node",
  "id": 25972727,
  "lat": 48.8939861,
  "lon": 8.7031061,
  "tags": {
    "name": "Pforzheim Hauptbahnhof",
    "public_transport": "station",
    "railway": "station",
    "railway:ref": "TPH",
    "railway:station_category": "2",
    "ref:IFOPT": "de:8231:50",
    "toilets:wheelchair": "no",
    "uic_ref": "8000299",
    "wheelchair": "limited",
    "wikipedia": "de:Pforzheim Hauptbahnhof"
  }
},
{
  "type": "node",
  "id": 25975092,
  "lat": 52.2859261,
  "lon": 9.8195693,
  "tags": {
    "name": "Rethen (Leine)",
    "operator": "Deutsche Bahn",
    "railway": "station",
    "railway:station_category": "6",
    "ref": "HRTN",
    "uic_ref": "8005047"
  }
},
{
  "type": "node",
  "id": 26023348,
  "lat": 51.3333663,
  "lon": 12.3217175,
  "tags": {
    "name": "Leipzig-Lindenau",
    "operator": "DB Station&Service AG",
    "railway": "halt",
    "wheelchair": "yes"
  }
},
{
  "type": "node",
  "id": 26025172,
  "lat": 53.3430989,
  "lon": 8.7852303,
  "tags": {
    "addr:city": "Lübberstedt",
    "addr:housenumber": "33",
    "addr:postcode": "27729",
    "addr:street": "Bahnhofstraße",
    "name": "Lübberstedt",
    "public_transport": "station",
    "railway": "station",
    "railway:station_category": "6",
    "train": "yes"
  }
},
{
  "type": "node",
  "id": 26080368,
  "lat": 50.6974909,
  "lon": 10.8887385,
  "tags": {
    "ele": "513",
    "name": "Ilmenau-Roda",
    "public_transport": "stop_position",
    "railway": "halt",
    "railway:ref": "UIR",
    "railway:station_category": "7",
    "ref:erfurterbahn": "UIR",
    "ref:ibnr": "8011932",
    "start_date": "1879",
    "uic_name": "Ilmenau-Roda",
    "uic_ref": "8011932"
  }
},
{
  "type": "node",
  "id": 26080391,
  "lat": 50.7155710,
  "lon": 10.8572711,
  "tags": {
    "ele": "473",
    "name": "Geraberg",
    "public_transport": "stop_position",
    "rail": "yes",
    "railway": "halt",
    "railway:ref": "UGBG",
    "railway:station_category": "6",
    "ref:erfurterbahn": "UGBG",
    "ref:ibnr": "8011624",
    "uic_name": "Geraberg",
    "uic_ref": "8011624",
    "wheelchair": "yes",
    "wheelchair:description": "Schiefe Ebene wird im Zug mitgeführt."
  }
},
{
  "type": "node",
  "id": 26080410,
  "lat": 50.7334188,
  "lon": 10.8810887,
  "tags": {
    "ele": "430",
    "name": "Martinroda",
    "on_demand": "yes",
    "public_transport": "stop_position",
    "rail": "yes",
    "railway": "halt",
    "railway:ref": "UMT",
    "railway:station_category": "7",
    "ref:erfurterbahn": "UMT",
    "ref:ibnr": "8012317",
    "train": "yes",
    "uic_name": "Martinroda",
    "uic_ref": "8012317"
  }
},
{
  "type": "node",
  "id": 26086557,
  "lat": 51.0469063,
  "lon": 12.4409025,
  "tags": {
    "ele": "170",
    "name": "Treben Lehma",
    "operator": "Deutsche Bahn",
    "public_transport": "station",
    "railway": "halt",
    "railway:ref": "LTRL",
    "railway:station_category": "6",
    "uic_name": "Treben-Lehma",
    "uic_ref": "8013138"
  }
},
{
  "type": "node",
  "id": 26112734,
  "lat": 52.1965102,
  "lon": 8.7139521,
  "tags": {
    "name": "Löhne (Westf)",
    "railway": "station",
    "uic_ref": "8000233",
    "wheelchair": "no"
  }
},
{
  "type": "node",
  "id": 26124364,
  "lat": 52.5304677,
  "lon": 13.2992640,
  "tags": {
    "description": "S Jungfernheide, Gleis 2",
    "light_rail": "yes",
    "name": "S Jungfernheide",
    "public_transport": "stop_position",
    "railway": "halt",
    "railway:station_category": "4",
    "ref": "2",
    "station": "light_rail",
    "usage": "main",
    "wheelchair": "yes"
  }
},
{
  "type": "node",
  "id": 26124376,
  "lat": 52.5181050,
  "lon": 13.2842794,
  "tags": {
    "description": "S Westend Gleis 1",
    "light_rail": "yes",
    "name": "S Westend",
    "public_transport": "stop_position",
    "railway": "station",
    "railway:station_category": "4",
    "ref": "1",
    "station": "light_rail",
    "usage": "main",
    "wheelchair": "yes"
  }
},
{
  "type": "node",
  "id": 26195653,
  "lat": 48.9480278,
  "lon": 9.1374075,
  "tags": {
    "addr:city": "Bietigheim-Bissingen",
    "addr:postcode": "74321",
    "addr:street": "Bahnhofsplatz",
    "fee_zone": "45",
    "name": "Bietigheim-Bissingen",
    "network": "VVS",
    "railway": "station",
    "railway:ref": "TBM",
    "toilets:wheelchair": "no",
    "wheelchair": "limited",
    "wheelchair:description": "Nur S-Bahn Bahnsteige mit Aufzug erreichbar. Restliche Bahnsteige nicht barrierefrei. Bis Ende 2016 sollen alle Gleise barrierefrei zugänglich sein.",
    "wheelchair:description:de": "Die Bahnsteige für Nah- und Fernverkehr sind für Rollstuhlfahrer nicht geeignet, da es nur Treppen zum Bahnsteig gibt. S-Bahnsteige sind barrierefrei."
  }
},
{
  "type": "node",
  "id": 26195726,
  "lat": 48.9975122,
  "lon": 9.1366550,
  "tags": {
    "name": "Besigheim",
    "note": "Besigheim ist ein Haltepunkt, kein Bahnhof, da es dort keine Weichen mehr gibt",
    "operator": "DB Station&Service AG",
    "railway": "halt",
    "toilets:wheelchair": "no",
    "wheelchair": "no",
    "wheelchair:description": "Gesamter Haltepunkt nicht barrierefrei.",
    "wikipedia": "de:Bahnhof Besigheim"
  }
},
{
  "type": "node",
  "id": 26195953,
  "lat": 50.5994371,
  "lon": 10.5968995,
  "tags": {
    "ele": "374.48",
    "name": "Dietzhausen",
    "public_transport": "station",
    "railway": "station",
    "railway:ref": "UDN",
    "railway:station_category": "7",
    "uic_name": "Dietzhausen",
    "uic_ref": "8011378"
  }
},
{
  "type": "node",
  "id": 26196061,
  "lat": 50.6837635,
  "lon": 10.7699652,
  "tags": {
    "ele": "598.44",
    "name": "Gehlberg",
    "railway": "halt",
    "railway:ref": "UGB",
    "railway:station_category": "6",
    "uic_name": "Gehlberg",
    "uic_ref": "8011603"
  }
},
{
  "type": "node",
  "id": 26283562,
  "lat": 48.9814350,
  "lon": 9.4628627,
  "tags": {
    "name": "Oppenweiler (Württemberg)",
    "operator": "DB Station&Service AG",
    "public_transport": "stop_position",
    "railway": "station",
    "railway:ref": "TOP",
    "train": "yes"
  }
},
{
  "type": "node",
  "id": 26283685,
  "lat": 48.9994427,
  "lon": 9.5003244,
  "tags": {
    "name": "Sulzbach (Murr)",
    "note": "\"Sulzbach (Murr)\" ist die offizielle Betriebsstellenbezeichnung wie sie auch in Fahrplanmedien und auf den Schildern vor Ort genannt wird",
    "railway": "station",
    "railway:ref": "TSBM",
    "wheelchair": "yes"
  }
},
{
  "type": "node",
  "id": 26405723,
  "lat": 51.8018726,
  "lon": 12.2365948,
  "tags": {
    "name": "Dessau Süd",
    "operator": "DB Station&Service AG",
    "public_transport": "stop_position",
    "railway": "halt",
    "train": "yes"
  }
},
{
  "type": "node",
  "id": 26486827,
  "lat": 48.0409305,
  "lon": 8.5059502,
  "tags": {
    "name": "VS-Zollhaus",
    "network": "VSB",
    "on_demand": "yes",
    "operator": "DB Station&Service AG",
    "public_transport": "station",
    "railway": "halt",
    "railway:position": "21,1",
    "railway:ref": "RVLZ",
    "railway:station_category": "7",
    "start_date": "2003-08-31",
    "wheelchair": "yes"
  }
},
{
  "type": "node",
  "id": 26486845,
  "lat": 48.0527496,
  "lon": 8.5285710,
  "tags": {
    "light_rail": "yes",
    "name": "Villingen-Schwenningen Eisstadion",
    "network": "VSB",
    "on_demand": "yes",
    "operator": "DB Station&Service AG",
    "public_transport": "station",
    "railway": "halt",
    "railway:position": "18,6",
    "railway:ref": "RVLE",
    "railway:station_category": "7",
    "start_date": "2004-12-12",
    "uic_ref": "8000356",
    "wheelchair": "limited"
  }
},
{
  "type": "node",
  "id": 26486851,
  "lat": 48.0598904,
  "lon": 8.5358410,
  "tags": {
    "name": "Schwenningen (Neckar)",
    "network": "VSB",
    "operator": "DB Station&Service AG",
    "public_transport": "station",
    "railway": "station",
    "railway:position": "17,6",
    "railway:ref": "RSCV",
    "railway:station_category": "6",
    "start_date": "1869-08-26",
    "wheelchair": "yes"
  }
},
{
  "type": "node",
  "id": 26486860,
  "lat": 48.0601568,
  "lon": 8.5469290,
  "tags": {
    "name": "VS-Hammerstatt",
    "network": "VSB",
    "on_demand": "yes",
    "operator": "DB Station&Service AG",
    "public_transport": "station",
    "railway": "halt",
    "railway:position": "16,7",
    "railway:ref": "RVLH",
    "railway:station_category": "7",
    "start_date": "2004-12-12",
    "uic_ref": "8000393",
    "wheelchair": "yes"
  }
},
{
  "type": "node",
  "id": 26486884,
  "lat": 48.0870598,
  "lon": 8.5852334,
  "tags": {
    "name": "Trossingen Bahnhof",
    "network": "VVR/VSB",
    "operator": "DB Netz AG",
    "public_transport": "station",
    "railway": "station",
    "railway:ref": "TTR",
    "railway:station_category": "6",
    "start_date": "1869-08-26",
    "wheelchair": "yes"
  }
},
{
  "type": "node",
  "id": 26487859,
  "lat": 48.9537401,
  "lon": 8.5728082,
  "tags": {
    "alt_name": "Remchingen",
    "name": "Wilferdingen-Singen",
    "operator": "DB Netz AG; DB Station&Service AG; Albtal-Verkehrs-Gesellschaft mbH",
    "public_transport": "station",
    "railway": "station",
    "railway:position": "12.421",
    "railway:ref": "TWL",
    "ref:IFOPT": "de:8236:1794",
    "uic_ref": "8006440",
    "wheelchair": "no"
  }
},
{
  "type": "node",
  "id": 26490141,
  "lat": 53.0528092,
  "lon": 8.6294626,
  "tags": {
    "addr:city": "Delmenhorst",
    "addr:housenumber": "10",
    "addr:postcode": "27753",
    "addr:street": "Wittekindstraße",
    "name": "Delmenhorst",
    "phone": "+49 1806 512512",
    "public_transport": "station",
    "railway": "station",
    "railway:ref": "HD",
    "railway:station_category": "3",
    "shelter": "yes",
    "train": "yes",
    "uic_ref": "8000070",
    "wheelchair": "yes",
    "wikipedia": "de:Bahnhof Delmenhorst"
  }
},
{
  "type": "node",
  "id": 26496854,
  "lat": 53.0763958,
  "lon": 8.7863561,
  "tags": {
    "name": "Bremen Neustadt",
    "railway": "station",
    "railway:ref": "HBN",
    "railway:station_category": "5",
    "uic_ref": "8001155",
    "wheelchair": "no"
  }
},
{
  "type": "node",
  "id": 26562354,
  "lat": 53.4058864,
  "lon": 8.7805118,
  "tags": {
    "name": "Stubben",
    "railway": "station",
    "railway:station_category": "6",
    "wheelchair": "yes"
  }
},
{
  "type": "node",
  "id": 26562398,
  "lat": 53.5350147,
  "lon": 8.5993743,
  "tags": {
    "name": "Bremerhaven Hauptbahnhof",
    "public_transport": "station",
    "railway": "station",
    "wheelchair": "yes"
  }
},
{
  "type": "node",
  "id": 26565329,
  "lat": 53.5123120,
  "lon": 8.8066164,
  "tags": {
    "name": "Wehdel",
    "public_transport": "station",
    "railway": "halt"
  }
},
{
  "type": "node",
  "id": 26565361,
  "lat": 53.5155001,
  "lon": 8.7224535,
  "tags": {
    "name": "Sellstedt",
    "public_transport": "station",
    "railway": "halt"
  }
},
{
  "type": "node",
  "id": 26575339,
  "lat": 47.9881649,
  "lon": 12.1360360,
  "tags": {
    "name": "Rott am Inn",
    "public_transport": "station",
    "railway": "station",
    "train": "yes"
  }
},
{
  "type": "node",
  "id": 26594403,
  "lat": 49.6623658,
  "lon": 8.4521182,
  "tags": {
    "name": "Bobstadt",
    "railway": "halt",
    "railway:ref": "FBST",
    "wheelchair": "no"
  }
},
{
  "type": "node",
  "id": 26594671,
  "lat": 48.8268499,
  "lon": 8.7112758,
  "tags": {
    "name": "Unterreichenbach",
    "railway": "station"
  }
},
{
  "type": "node",
  "id": 26594734,
  "lat": 48.6784497,
  "lon": 8.7271571,
  "tags": {
    "name": "Bad Teinach-Neubulach",
    "railway": "station"
  }
},
{
  "type": "node",
  "id": 26594767,
  "lat": 48.4824512,
  "lon": 8.7241358,
  "tags": {
    "name": "Hochdorf (bei Horb)",
    "network": "Verkehrs-Gemeinschaft Landkreis Freudenstadt",
    "operator": "DB Netz AG",
    "public_transport": "stop_position",
    "railway": "station",
    "railway:ref": "THF",
    "railway:station_category": "6",
    "train": "yes",
    "uic_ref": "8000389",
    "wheelchair": "no"
  }
},
{
  "type": "node",
  "id": 26594772,
  "lat": 48.7729677,
  "lon": 8.7341358,
  "tags": {
    "name": "Bad Liebenzell",
    "railway": "station",
    "wheelchair": "yes"
  }
},
{
  "type": "node",
  "id": 26594778,
  "lat": 48.6252902,
  "lon": 8.7429355,
  "tags": {
    "name": "Wildberg (Württ)",
    "note": "\"Wildberg (Württ)\" ist die offizielle Betriebsstellenbezeichnung nach Betriebsstellenverzeichnis und Fahrplanmedien",
    "operator": "DB Station&Service AG",
    "railway": "station",
    "railway:ref": "TWIB"
  }
},
{
  "type": "node",
  "id": 26594814,
  "lat": 48.7340674,
  "lon": 8.7368134,
  "tags": {
    "name": "Hirsau",
    "railway": "station"
  }
},
{
  "type": "node",
  "id": 26594882,
  "lat": 48.8933333,
  "lon": 8.6779914,
  "tags": {
    "name": "Pforzheim Maihälden",
    "public_transport": "stop_position",
    "railway": "halt",
    "railway:position": "1,9",
    "railway:ref": "TPHM",
    "uic_ref": "8004804",
    "wheelchair": "yes"
  }
},
{
  "type": "node",
  "id": 26594930,
  "lat": 48.5557095,
  "lon": 8.7277894,
  "tags": {
    "name": "Nagold",
    "railway": "station"
  }
},
{
  "type": "node",
  "id": 26600620,
  "lat": 53.5591518,
  "lon": 9.8852809,
  "tags": {
    "hvv:barrier_free": "yes",
    "hvv:psv_type": "S",
    "name": "Othmarschen",
    "public_transport": "station",
    "railway": "station",
    "railway:ref": "AOH",
    "uic_name": "Hamburg-Othmarschen",
    "uic_ref": "8004719",
    "wheelchair": "yes"
  }
},
{
  "type": "node",
  "id": 26600701,
  "lat": 51.5628862,
  "lon": 12.9909587,
  "tags": {
    "name": "Torgau",
    "operator": "DB Station & Service AG",
    "railway": "station"
  }
},
{
  "type": "node",
  "id": 26603219,
  "lat": 52.4213090,
  "lon": 13.1795851,
  "tags": {
    "name": "S Berlin-Wannsee",
    "network": "Verkehrsverbund Berlin-Brandenburg",
    "operator": "Deutsche Bahn",
    "public_transport": "stop_position",
    "railway": "station",
    "railway:ref": "BWSS",
    "station": "light_rail",
    "wheelchair": "limited"
  }
},
{
  "type": "node",
  "id": 26609589,
  "lat": 49.6474952,
  "lon": 8.4962499,
  "tags": {
    "name": "Riedrode",
    "railway": "halt",
    "railway:ref": "FRIE",
    "uic_ref": "8005089"
  }
},
{
  "type": "node",
  "id": 26617695,
  "lat": 49.0657479,
  "lon": 8.6628842,
  "tags": {
    "name": "Gondelsheim Schloßstadion",
    "operator": "Albtal-Verkehrs-Gesellschaft mbH",
    "railway": "halt",
    "railway:ref": "RGOS",
    "uic_ref": "8070011"
  }
},
{
  "type": "node",
  "id": 26617702,
  "lat": 49.0599544,
  "lon": 8.6601447,
  "tags": {
    "name": "Gondelsheim (Baden)",
    "operator": "Albtal-Verkehrs-Gesellschaft mbH",
    "public_transport": "station",
    "railway": "halt",
    "railway:ref": "RGO"
  }
},
{
  "type": "node",
  "id": 26617715,
  "lat": 49.0393121,
  "lon": 8.6744768,
  "tags": {
    "name": "Diedelsheim",
    "note": "Bahnhofsteil des Bahnhofs Bretten",
    "operator": "Albtal-Verkehrs-Gesellschaft mbH",
    "railway": "halt",
    "wheelchair": "no"
  }
},
{
  "type": "node",
  "id": 26617815,
  "lat": 48.9530745,
  "lon": 8.8458308,
  "tags": {
    "name": "Mühlacker",
    "public_transport": "station",
    "railway": "station",
    "railway:ref": "TM",
    "railway:station_category": "3",
    "uic_ref": "8000339",
    "wheelchair": "yes",
    "wikipedia": "de:Bahnhof Mühlacker"
  }
},
{
  "type": "node",
  "id": 26618462,
  "lat": 48.8820640,
  "lon": 8.6539971,
  "tags": {
    "name": "Brötzingen Wohnlichstraße",
    "public_transport": "stop_position",
    "railway": "halt",
    "railway:position": "1,09",
    "railway:ref": "TPBW",
    "uic_ref": "8070275",
    "wheelchair": "yes"
  }
},
{
  "type": "node",
  "id": 26618463,
  "lat": 48.8736768,
  "lon": 8.6452937,
  "tags": {
    "name": "Birkenfeld(Enz)",
    "public_transport": "stop_position",
    "railway": "halt",
    "railway:position": "2,27",
    "railway:ref": "TBIR",
    "uic_name": "Birkenfeld(Enz)",
    "uic_ref": "8000986",
    "wheelchair": "yes"
  }
},
{
  "type": "node",
  "id": 26618503,
  "lat": 48.8491677,
  "lon": 8.6009422,
  "tags": {
    "name": "Neuenbürg (Enz)",
    "public_transport": "stop_position",
    "railway": "station",
    "railway:position": "7,45",
    "railway:ref": "TNE",
    "uic_ref": "8004265",
    "wheelchair": "yes"
  }
},
{
  "type": "node",
  "id": 26618511,
  "lat": 48.8445767,
  "lon": 8.5988482,
  "tags": {
    "name": "Neuenbürg Süd",
    "public_transport": "stop_position",
    "railway": "halt",
    "railway:position": "8,08",
    "railway:ref": "TNES",
    "uic_ref": "8004264",
    "wheelchair": "yes"
  }
},
{
  "type": "node",
  "id": 26618525,
  "lat": 48.8369707,
  "lon": 8.5904808,
  "tags": {
    "name": "Neuenbürg Freibad",
    "public_transport": "stop_position",
    "railway": "halt",
    "railway:position": "9,4",
    "railway:ref": "TNEB",
    "uic_ref": "8070276",
    "wheelchair": "yes"
  }
},
{
  "type": "node",
  "id": 26618537,
  "lat": 48.8301706,
  "lon": 8.5788972,
  "tags": {
    "name": "Rotenbach(Enz)",
    "public_transport": "stop_position",
    "railway": "halt",
    "railway:position": "10,50",
    "railway:ref": "TRY",
    "uic_ref": "8070277",
    "wheelchair": "yes"
  }
},
{
  "type": "node",
  "id": 26618552,
  "lat": 48.8172341,
  "lon": 8.5778914,
  "tags": {
    "name": "Neuenbürg Eyachbrücke",
    "public_transport": "stop_position",
    "railway": "halt",
    "railway:position": "12,08",
    "railway:ref": "TNEE",
    "uic_ref": "8070278",
    "wheelchair": "yes"
  }
},
{
  "type": "node",
  "id": 26619518,
  "lat": 48.8200802,
  "lon": 8.4451179,
  "tags": {
    "name": "Steinhäusle",
    "network": "Karlsruher Verkehrsverbund",
    "note": "Bahnübergang dient bei diesem Mini-Haltepunkt als Bahnsteig. Er wurde im Rahmen eines Grundstückstauschs mit den Anrainern angelegt, vgl. Wikipedia. http://www.mapillary.com/map/im/4Uhshe0ftojvfQRX3Xdjxw",
    "on_demand": "yes",
    "operator": "Albtal-Verkehrs-Gesellschaft mbH",
    "railway": "halt",
    "railway:position": "23.6",
    "wheelchair": "no"
  }
},
{
  "type": "node",
  "id": 26723425,
  "lat": 50.9428614,
  "lon": 6.8347336,
  "tags": {
    "VRS:gemeinde": "KÖLN",
    "VRS:name": "Bf Lövenich",
    "VRS:ortsteil": "Lövenich",
    "VRS:ref": "13701",
    "local_ref": "1",
    "name": "Lövenich",
    "operator": "DB Station & Service AG",
    "public_transport": "stop_position",
    "railway": "halt",
    "ref": "1",
    "short": "KLO",
    "uic_ref": "8003732",
    "wheelchair": "yes"
  }
},
{
  "type": "node",
  "id": 26773593,
  "lat": 49.9942958,
  "lon": 8.3141633,
  "tags": {
    "description": "Mainz-Gustavsburg Gleis 2",
    "name": "Mainz-Gustavsburg",
    "public_transport": "stop_position",
    "railway": "station",
    "ref": "2",
    "train": "yes"
  }
},
{
  "type": "node",
  "id": 26867226,
  "lat": 49.5985780,
  "lon": 8.4784826,
  "tags": {
    "name": "Lampertheim",
    "network": "VRN",
    "operator": "DB Station&Service AG",
    "public_transport": "station",
    "railway": "station",
    "railway:ref": "FLP",
    "railway:station_category": "4",
    "uic_ref": "8003503",
    "wheelchair": "no"
  }
},
{
  "type": "node",
  "id": 26886068,
  "lat": 49.6889747,
  "lon": 8.4506634,
  "tags": {
    "name": "Biblis",
    "railway": "station",
    "railway:ref": "FBL",
    "uic_ref": "8000503",
    "wikipedia": "de:Bahnhof Biblis"
  }
},
{
  "type": "node",
  "id": 26904717,
  "lat": 52.5082202,
  "lon": 13.2591198,
  "tags": {
    "addr:city": "Berlin",
    "addr:country": "DE",
    "addr:housenumber": "37a",
    "addr:postcode": "14055",
    "addr:street": "Heerstraße/ Boyenallee",
    "contact:phone": "+49 30 29743333",
    "contact:website": "http://www.s-bahn-berlin.de/fahrplanundnetz/bahnhof/uebersicht/70",
    "description": "S Heerstraße, Gleis",
    "name": "S Heerstraße",
    "note": "Austausch des Aufzugs bis voraussichtlich 27.01.2012)",
    "public_transport": "stop_position",
    "railway": "station",
    "railway:ref": "BHST",
    "station": "light_rail",
    "train": "yes",
    "wheelchair": "yes",
    "wikidata": "Q800502",
    "wikipedia": "de:Bahnhof Berlin Heerstraße"
  }
},
{
  "type": "node",
  "id": 26943869,
  "lat": 52.5102387,
  "lon": 13.2275633,
  "tags": {
    "addr:city": "Berlin",
    "addr:country": "DE",
    "addr:postcode": "14055",
    "addr:street": "Schirwindter Allee",
    "contact:phone": "030 29743333",
    "contact:website": "http://www.s-bahn-berlin.de/fahrplanundnetz/bahnhof/Pichelsberg/121",
    "description": "S Pichelsberg, Gleis 2",
    "name": "S Pichelsberg",
    "railway": "station",
    "ref": "2",
    "station": "light_rail",
    "wheelchair": "yes",
    "wikidata": "Q800488",
    "wikipedia": "de:Bahnhof Berlin Pichelsberg"
  }
},